Location,Latitude,Longitude,Free Bikes,Coordinates,Station Name,Station Coordinates,Bikes Available,Name,Address,Rating
Chilco & Barclay,49.291909,-123.140713,13.0,"(49.291909, -123.140713)",,,,,,
St George & Broadway,49.262321,-123.09306,0.0,"(49.262321, -123.09306)",,,,,,
Britannia Parking Lot,49.275882,-123.071865,0.0,"(49.275882, -123.071865)",,,,,,
Morton & Denman,49.28803,-123.142135,16.0,"(49.28803, -123.142135)",,,,,,
Thornton & National,49.273777,-123.092723,14.0,"(49.273777, -123.092723)",,,,,,
Burrard & 14th,49.259469,-123.145718,1.0,"(49.259469, -123.145718)",,,,,,
Olympic Village Station,49.266314,-123.116011,11.0,"(49.266314, -123.116011)",,,,,,
8th & Macdonald,49.264928,-123.168068,4.0,"(49.264928, -123.168068)",,,,,,
30th & Ontario,49.243375,-123.104978,3.0,"(49.243375, -123.104978)",,,,,,
Lakewood & Triumph,49.283968,-123.061615,3.0,"(49.283968, -123.061615)",,,,,,
13th & Cambie,49.259579,-123.114769,7.0,"(49.259579, -123.114769)",,,,,,
Arbutus & Nanton,49.247854,-123.153422,14.0,"(49.247854, -123.153422)",,,,,,
14th & Fraser,49.257939,-123.089531,3.0,"(49.257939, -123.089531)",,,,,,
15th & Victoria (Trout Lake),49.256857,-123.065646,5.0,"(49.256857, -123.065646)",,,,,,
Robson & Hornby,49.282758,-123.122092,11.0,"(49.282758, -123.122092)",,,,,,
Cardero & Robson,49.289255,-123.132677,13.0,"(49.289255, -123.132677)",,,,,,
1st & Scotia,49.2685027,-123.0975014,16.0,"(49.2685027, -123.0975014)",,,,,,
10th & Fraser,49.26151,-123.089413,2.0,"(49.26151, -123.089413)",,,,,,
Ontario & 5th,49.266724,-123.104824,13.0,"(49.266724, -123.104824)",,,,,,
Heather & 16th,49.256845,-123.120071,1.0,"(49.256845, -123.120071)",,,,,,
Richards & Smithe,49.279259,-123.119145,1.0,"(49.279259, -123.119145)",,,,,,
Robson & Beatty,49.277773,-123.114237,16.0,"(49.277773, -123.114237)",,,,,,
Maple Tree Square,49.283482,-123.103738,7.0,"(49.283482, -123.103738)",,,,,,
22nd & Main,49.25094,-123.101306,1.0,"(49.25094, -123.101306)",,,,,,
Carrall & Seawall,49.276294,-123.106534,4.0,"(49.276294, -123.106534)",,,,,,
Charles & Woodland,49.2731,-123.0732,1.0,"(49.2731, -123.0732)",,,,,,
1st & Manitoba,49.27023,-123.10651,17.0,"(49.27023, -123.10651)",,,,,,
St Catherines & 7th,49.264466,-123.085183,17.0,"(49.264466, -123.085183)",,,,,,
Triumph & Victoria,49.283986,-123.065264,2.0,"(49.283986, -123.065264)",,,,,,
18th & Main,49.254667,-123.101389,2.0,"(49.254667, -123.101389)",,,,,,
St Catherines & 10th,49.261353,-123.085333,0.0,"(49.261353, -123.085333)",,,,,,
Nelson & Richards,49.277844,-123.120942,1.0,"(49.277844, -123.120942)",,,,,,
Arbutus & 10th,49.262835,-123.152626,6.0,"(49.262835, -123.152626)",,,,,,
Comox & Denman,49.288444,-123.139203,11.0,"(49.288444, -123.139203)",,,,,,
Prince Edward & 14th,49.258352,-123.096337,1.0,"(49.258352, -123.096337)",,,,,,
Alexander & Railway,49.283992,-123.091206,7.0,"(49.283992, -123.091206)",,,,,,
Chilco & Beach,49.28972,-123.144028,10.0,"(49.28972, -123.144028)",,,,,,
Richards & Cordova,49.284554,-123.111031,14.0,"(49.284554, -123.111031)",,,,,,
Agronomy & East Mall,49.2617360647494,-123.246483808594,15.0,"(49.2617360647494, -123.246483808594)",,,,,,
Orchard Commons,49.259999,-123.250902,10.0,"(49.259999, -123.250902)",,,,,,
Yew & Broadway,49.263523,-123.155267,2.0,"(49.263523, -123.155267)",,,,,,
Woodland & 10th,49.261263,-123.073707,5.0,"(49.261263, -123.073707)",,,,,,
Ontario & 16th,49.256825,-123.105234,0.0,"(49.256825, -123.105234)",,,,,,
14th & Alder,49.258819,-123.131317,2.0,"(49.258819, -123.131317)",,,,,,
Chestnut & McNicoll,49.275938,-123.145939,4.0,"(49.275938, -123.145939)",,,,,,
Dunbar & 6th,49.266636,-123.183661,16.0,"(49.266636, -123.183661)",,,,,,
Stanley Park - Vancouver Aquarium,49.299292,-123.130281,2.0,"(49.299292, -123.130281)",,,,,,
Yaletown-Roundhouse Station,49.274566,-123.121817,8.0,"(49.274566, -123.121817)",,,,,,
Smithe & Burrard,49.282503,-123.124697,5.0,"(49.282503, -123.124697)",,,,,,
Abbott & Cordova,49.282759,-123.106955,13.0,"(49.282759, -123.106955)",,,,,,
Sasamat & 10th,49.264019,-123.209176,7.0,"(49.264019, -123.209176)",,,,,,
Vine & 4th,49.268339,-123.157443,1.0,"(49.268339, -123.157443)",,,,,,
10th & Ontario,49.262062,-123.104656,1.0,"(49.262062, -123.104656)",,,,,,
Pine & 10th,49.262822,-123.14338,1.0,"(49.262822, -123.14338)",,,,,,
Wallace & 4th,49.268974,-123.190701,6.0,"(49.268974, -123.190701)",,,,,,
Pacific & Richards,49.273663,-123.127075,5.0,"(49.273663, -123.127075)",,,,,,
7th &  Alder,49.265198,-123.131043,2.0,"(49.265198, -123.131043)",,,,,,
Canada Place,49.287214,-123.11287,9.0,"(49.287214, -123.11287)",,,,,,
Heather & 18th,49.255034,-123.120226,4.0,"(49.255034, -123.120226)",,,,,,
14th & Oak,49.258761,-123.127071,0.0,"(49.258761, -123.127071)",,,,,,
Bute & Comox,49.283343,-123.131099,7.0,"(49.283343, -123.131099)",,,,,,
Comox & Broughton,49.285253,-123.134356,0.0,"(49.285253, -123.134356)",,,,,,
Station & Terminal,49.272172,-123.097978,8.0,"(49.272172, -123.097978)",,,,,,
Stanley Park - Third Beach Parking Lot,49.302577,-123.155616,11.0,"(49.302577, -123.155616)",,,,,,
Woodland & 4th,49.266751,-123.073501,0.0,"(49.266751, -123.073501)",,,,,,
8th & Ash,49.264215,-123.117772,2.0,"(49.264215, -123.117772)",,,,,,
Burrard & Drake,49.27808,-123.130557,0.0,"(49.27808, -123.130557)",,,,,,
10th & Kingsway,49.261973,-123.09725,1.0,"(49.261973, -123.09725)",,,,,,
10th & Oak,49.262255,-123.126217,1.0,"(49.262255, -123.126217)",,,,,,
Hawks & Union,49.277333,-123.087359,9.0,"(49.277333, -123.087359)",,,,,,
Marinaside & Cooperage,49.273833,-123.114373,22.0,"(49.273833, -123.114373)",,,,,,
Alberni & Jervis,49.28763,-123.127245,13.0,"(49.28763, -123.127245)",,,,,,
7th & Arbutus,49.265605,-123.152566,7.0,"(49.265605, -123.152566)",,,,,,
14th & Ontario,49.25849,-123.104799,1.0,"(49.25849, -123.104799)",,,,,,
King Edward & Cambie,49.249184,-123.116141,1.0,"(49.249184, -123.116141)",,,,,,
1st & Fir,49.270783,-123.141564,7.0,"(49.270783, -123.141564)",,,,,,
Arbutus & 16th,49.257654,-123.153212,1.0,"(49.257654, -123.153212)",,,,,,
War Memorial Gym,49.2665793,-123.2485487,3.0,"(49.2665793, -123.2485487)",,,,,,
28th & Willow,49.246243,-123.124373,9.0,"(49.246243, -123.124373)",,,,,,
Arbutus Greenway & Fir,49.266774,-123.141135,3.0,"(49.266774, -123.141135)",,,,,,
West Mall Swing Space Building,49.263073,-123.254307,18.0,"(49.263073, -123.254307)",,,,,,
McLean & Pender,49.280427,-123.074082,13.0,"(49.280427, -123.074082)",,,,,,
Bute & Barclay,49.284893,-123.128685,5.0,"(49.284893, -123.128685)",,,,,,
Balsam & Cornwall,49.273011,-123.159663,0.0,"(49.273011, -123.159663)",,,,,,
Hastings & Broughton,49.290112,-123.127062,17.0,"(49.290112, -123.127062)",,,,,,
Seymour & Cordova,49.28512,-123.11242,13.0,"(49.28512, -123.11242)",,,,,,
Alder & 11th,49.261742,-123.13148,0.0,"(49.261742, -123.13148)",,,,,,
10th & Columbia,49.262206,-123.109091,1.0,"(49.262206, -123.109091)",,,,,,
Heather & 14th,49.259183,-123.120126,1.0,"(49.259183, -123.120126)",,,,,,
Commercial & 20th,49.252656,-123.067965,1.0,"(49.252656, -123.067965)",,,,,,
Kitsilano Beach Park,49.273355,-123.154493,17.0,"(49.273355, -123.154493)",,,,,,
Rolston & Granville,49.274232,-123.129998,10.0,"(49.274232, -123.129998)",,,,,,
Cordova & Bute,49.289124,-123.12196,12.0,"(49.289124, -123.12196)",,,,,,
12th & Yukon (City Hall),49.260599,-123.113504,2.0,"(49.260599, -123.113504)",,,,,,
Blenheim & 4th,49.268837,-123.177633,9.0,"(49.268837, -123.177633)",,,,,,
Wylie & 2nd,49.267725,-123.11311,14.0,"(49.267725, -123.11311)",,,,,,
Thurlow & Pendrell,49.280881,-123.130672,0.0,"(49.280881, -123.130672)",,,,,,
14th & Cambie,49.258763,-123.115392,2.0,"(49.258763, -123.115392)",,,,,,
Granville & Georgia,49.282409,-123.118541,18.0,"(49.282409, -123.118541)",,,,,,
Grant & Commercial,49.271377,-123.069416,0.0,"(49.271377, -123.069416)",,,,,,
8th & Ontario,49.263837,-123.105173,3.0,"(49.263837, -123.105173)",,,,,,
Hornby & Nelson,49.28062,-123.12482,4.0,"(49.28062, -123.12482)",,,,,,
šxʷƛ̓ənəq Xwtl'e7énḵ Square - Vancouver Art Gallery,49.283227,-123.120523,7.0,"(49.283227, -123.120523)",,,,,,
Dunsmuir & Beatty,49.279764,-123.110154,16.0,"(49.279764, -123.110154)",,,,,,
Robson & Granville,49.281506,-123.120101,2.0,"(49.281506, -123.120101)",,,,,,
4th & Commercial,49.266969,-123.069936,0.0,"(49.266969, -123.069936)",,,,,,
8th & Scotia,49.263635,-123.099236,1.0,"(49.263635, -123.099236)",,,,,,
Homer & Robson (Vancouver Public Library),49.279739,-123.116251,3.0,"(49.279739, -123.116251)",,,,,,
7th & Granville,49.2653,-123.13811,5.0,"(49.2653, -123.13811)",,,,,,
Harwood & Bute,49.28026,-123.135244,2.0,"(49.28026, -123.135244)",,,,,,
Creekside Park North,49.2756,-123.102661,9.0,"(49.2756, -123.102661)",,,,,,
Nicola & Robson,49.2885056,-123.1312375,2.0,"(49.2885056, -123.1312375)",,,,,,
10th & Commercial,49.261403,-123.070102,7.0,"(49.261403, -123.070102)",,,,,,
10th & Cambie,49.262487,-123.114397,8.0,"(49.262487, -123.114397)",,,,,,
Quebec & 1st,49.27033,-123.10275,9.0,"(49.27033, -123.10275)",,,,,,
Lakewood & Oxford,49.285575,-123.061575,5.0,"(49.285575, -123.061575)",,,,,,
Carolina & Great Northern Way,49.267266,-123.090786,12.0,"(49.267266, -123.090786)",,,,,,
Columbia & 5th,49.266476,-123.109389,18.0,"(49.266476, -123.109389)",,,,,,
East Blvd & 37th,49.238105,-123.154966,13.0,"(49.238105, -123.154966)",,,,,,
Trafalgar & Cornwall,49.272969,-123.164325,5.0,"(49.272969, -123.164325)",,,,,,
5th & Arbutus,49.267222,-123.153157,3.0,"(49.267222, -123.153157)",,,,,,
Stanley Park - Information Booth,49.297933,-123.130758,1.0,"(49.297933, -123.130758)",,,,,,
14th & Main,49.258425,-123.100792,0.0,"(49.258425, -123.100792)",,,,,,
Georgia & Main,49.278529,-123.100017,17.0,"(49.278529, -123.100017)",,,,,,
Alma & Point Grey,49.27247,-123.185643,5.0,"(49.27247, -123.185643)",,,,,,
20th & Main,49.252691,-123.101289,4.0,"(49.252691, -123.101289)",,,,,,
Nelson & Mainland,49.276436,-123.11877,6.0,"(49.276436, -123.11877)",,,,,,
Point Grey & Blenheim,49.271471,-123.17731,9.0,"(49.271471, -123.17731)",,,,,,
Yukon & 6th,49.265939,-123.1129,12.0,"(49.265939, -123.1129)",,,,,,
Burrard & 7th,49.265336,-123.145823,3.0,"(49.265336, -123.145823)",,,,,,
14th & Granville,49.25894,-123.139272,5.0,"(49.25894, -123.139272)",,,,,,
Wall & Eton,49.287464,-123.060771,14.0,"(49.287464, -123.060771)",,,,,,
Beach & Cardero,49.283298,-123.142288,6.0,"(49.283298, -123.142288)",,,,,,
Cypress & 4th,49.268269,-123.147885,14.0,"(49.268269, -123.147885)",,,,,,
Bute & Robson,49.285836,-123.127265,0.0,"(49.285836, -123.127265)",,,,,,
Richards & Robson,49.280216,-123.117639,2.0,"(49.280216, -123.117639)",,,,,,
Glen & Union,49.277469,-123.081315,13.0,"(49.277469, -123.081315)",,,,,,
8th & Yukon,49.263962,-123.112621,0.0,"(49.263962, -123.112621)",,,,,,
1st & Chestnut,49.270721,-123.146175,22.0,"(49.270721, -123.146175)",,,,,,
10th & Main,49.262141,-123.101961,0.0,"(49.262141, -123.101961)",,,,,,
Georgia & Homer,49.280787,-123.115271,5.0,"(49.280787, -123.115271)",,,,,,
York & Yew,49.271741,-123.155421,12.0,"(49.271741, -123.155421)",,,,,,
Ontario & Seawall,49.271721,-123.104207,16.0,"(49.271721, -123.104207)",,,,,,
10th & Granville,49.262598,-123.138921,10.0,"(49.262598, -123.138921)",,,,,,
15th & Knight,49.256496,-123.075426,6.0,"(49.256496, -123.075426)",,,,,,
Ontario & 23rd,49.249722,-123.104991,0.0,"(49.249722, -123.104991)",,,,,,
Dunbar & Broadway,49.264579,-123.18373,25.0,"(49.264579, -123.18373)",,,,,,
Carrall & Hastings,49.28117,-123.104419,10.0,"(49.28117, -123.104419)",,,,,,
8th & Commercial,49.263242,-123.070521,9.0,"(49.263242, -123.070521)",,,,,,
Charleson Park,49.267628,-123.127698,8.0,"(49.267628, -123.127698)",,,,,,
Beach & Hornby,49.275295,-123.132585,18.0,"(49.275295, -123.132585)",,,,,,
Princess & Union,49.277615,-123.091654,6.0,"(49.277615, -123.091654)",,,,,,
3rd & Quebec,49.268216,-123.103168,10.0,"(49.268216, -123.103168)",,,,,,
Stanley Park - Second Beach South,49.294318,-123.148808,16.0,"(49.294318, -123.148808)",,,,,,
6th & Carolina,49.265213,-123.090785,0.0,"(49.265213, -123.090785)",,,,,,
UBC Bookstore,49.265207,-123.250139,4.0,"(49.265207, -123.250139)",,,,,,
Balaclava & Broadway,49.264483,-123.173926,14.0,"(49.264483, -123.173926)",,,,,,
Expo & Carrall,49.278004,-123.105664,14.0,"(49.278004, -123.105664)",,,,,,
Beach & Seymour,49.273568,-123.129935,9.0,"(49.273568, -123.129935)",,,,,,
27th & Main,49.247204,-123.101549,2.0,"(49.247204, -123.101549)",,,,,,
Stanley Park - Second Beach North,49.29534,-123.150433,14.0,"(49.29534, -123.150433)",,,,,,
Keith & 6th,49.265005,-123.079481,18.0,"(49.265005, -123.079481)",,,,,,
Jericho Beach,49.271221,-123.191133,6.0,"(49.271221, -123.191133)",,,,,,
Point Grey & Bayswater,49.271044,-123.170661,15.0,"(49.271044, -123.170661)",,,,,,
7th & Woodland,49.264251,-123.073853,6.0,"(49.264251, -123.073853)",,,,,,
Aquatic Centre,49.27821,-123.136972,5.0,"(49.27821, -123.136972)",,,,,,
Georgia & Thurlow,49.285953,-123.124066,2.0,"(49.285953, -123.124066)",,,,,,
Cordova & Granville,49.2856698,-123.1125432,12.0,"(49.2856698, -123.1125432)",,,,,,
Vanier Park,49.275717,-123.142564,16.0,"(49.275717, -123.142564)",,,,,,
Trafalgar & Broadway,49.264326,-123.164725,6.0,"(49.264326, -123.164725)",,,,,,
Napier & Commercial,49.274881,-123.069323,1.0,"(49.274881, -123.069323)",,,,,,
7th & Laurel,49.265071,-123.123864,0.0,"(49.265071, -123.123864)",,,,,,
Science World,49.273691,-123.102232,9.0,"(49.273691, -123.102232)",,,,,,
Pender & Victoria,49.280197,-123.065859,1.0,"(49.280197, -123.065859)",,,,,,
Cypress & 16th,49.25741,-123.148531,5.0,"(49.25741, -123.148531)",,,,,,
Spyglass & Seawall,49.270877,-123.115103,8.0,"(49.270877, -123.115103)",,,,,,
Keefer & Hawks,49.279235,-123.087528,15.0,"(49.279235, -123.087528)",,,,,,
29th & Cambie,49.245135,-123.116098,6.0,"(49.245135, -123.116098)",,,,,,
Victoria & 10th,49.261188,-123.066009,0.0,"(49.261188, -123.066009)",,,,,,
Commercial & Adanac,49.277436,-123.070427,0.0,"(49.277436, -123.070427)",,,,,,
Columbia & 14th,49.258902,-123.109596,0.0,"(49.258902, -123.109596)",,,,,,
Dunsmuir & Richards,49.282214,-123.114101,10.0,"(49.282214, -123.114101)",,,,,,
Campbell & Hastings,49.280852,-123.084746,7.0,"(49.280852, -123.084746)",,,,,,
Franklin & Nanaimo,49.282087,-123.056909,4.0,"(49.282087, -123.056909)",,,,,,
Charles & Commercial,49.273103,-123.069892,3.0,"(49.273103, -123.069892)",,,,,,
Strangway Building,49.2661087286495,-123.2456811408,6.0,"(49.2661087286495, -123.2456811408)",,,,,,
Beatty & Nelson,49.275679,-123.116963,3.0,"(49.275679, -123.116963)",,,,,,
Trimble & 8th,49.2658,-123.20596,10.0,"(49.2658, -123.20596)",,,,,,
David Lam Park,49.270905,-123.126006,18.0,"(49.270905, -123.126006)",,,,,,
Burrard & 4th,49.267859,-123.145782,8.0,"(49.267859, -123.145782)",,,,,,
Cypress & Cornwall,49.272827,-123.147744,20.0,"(49.272827, -123.147744)",,,,,,
Keefer & Princess,49.279369,-123.091241,0.0,"(49.279369, -123.091241)",,,,,,
Bidwell & Burnaby,49.28526,-123.141809,15.0,"(49.28526, -123.141809)",,,,,,
11th & Kingsway,49.261122,-123.097571,1.0,"(49.261122, -123.097571)",,,,,,
Pender & Burrard,49.287097,-123.118551,24.0,"(49.287097, -123.118551)",,,,,,
Columbia & 1st,49.269969,-123.109623,10.0,"(49.269969, -123.109623)",,,,,,
Melville & Bute,49.287782,-123.12395,14.0,"(49.287782, -123.12395)",,,,,,
Anderson & 2nd,49.269361,-123.13782,17.0,"(49.269361, -123.13782)",,,,,,
5th & Main,49.266456,-123.100324,4.0,"(49.266456, -123.100324)",,,,,,
Alexander & Dunlevy,49.284062,-123.095097,3.0,"(49.284062, -123.095097)",,,,,,
13th & St George,49.258817,-123.092797,3.0,"(49.258817, -123.092797)",,,,,,
Commercial & Pandora,49.283236,-123.070443,15.0,"(49.283236, -123.070443)",,,,,,
Grandview & Commercial,49.263746,-123.069892,14.0,"(49.263746, -123.069892)",,,,,,
Expo & Smithe,49.276115,-123.114496,11.0,"(49.276115, -123.114496)",,,,,,
Cypress & 14th,49.25919,-123.148268,3.0,"(49.25919, -123.148268)",,,,,,
Brock Commons,49.269172,-123.25279,1.0,"(49.269172, -123.25279)",,,,,,
Beach & Broughton,49.281301,-123.139108,11.0,"(49.281301, -123.139108)",,,,,,
Arbutus Greenway & 14th,49.258924,-123.152591,1.0,"(49.258924, -123.152591)",,,,,,
Alexander & Main,49.284157,-123.099917,14.0,"(49.284157, -123.099917)",,,,,,
Hornby & Drake,49.277178,-123.13,3.0,"(49.277178, -123.13)",,,,,,
Highbury & 8th,49.265442,-123.187738,13.0,"(49.265442, -123.187738)",,,,,,
Pharmaceutical Sciences,49.26262,-123.2431,2.0,"(49.26262, -123.2431)",,,,,,
Haro & Denman,49.290587,-123.13625,11.0,"(49.290587, -123.13625)",,,,,,
Windsor & 14th,49.257985,-123.083366,12.0,"(49.257985, -123.083366)",,,,,,
Prince Edward & 16th,49.256694,-123.096579,3.0,"(49.256694, -123.096579)",,,,,,
Cardero & Davie,49.285512,-123.1384,1.0,"(49.285512, -123.1384)",,,,,,
Stamps Landing,49.26893,-123.11813,6.0,"(49.26893, -123.11813)",,,,,,
Marinaside & Davie,49.273471,-123.118016,21.0,"(49.273471, -123.118016)",,,,,,
Adanac & McLean,49.277665,-123.073653,14.0,"(49.277665, -123.073653)",,,,,,
Bute & Davie,49.282055,-123.133045,2.0,"(49.282055, -123.133045)",,,,,,
Victoria & 4th,49.266725,-123.065925,5.0,"(49.266725, -123.065925)",,,,,,
Heather & 29th,49.245535,-123.120496,7.0,"(49.245535, -123.120496)",,,,,,
McNicoll & Arbutus,49.276292,-123.150592,12.0,"(49.276292, -123.150592)",,,,,,
Jervis & Robson,49.28691,-123.128818,1.0,"(49.28691, -123.128818)",,,,,,
IK Barber Learning Centre,49.267561,-123.252261,0.0,"(49.267561, -123.252261)",,,,,,
Granville Island,49.27029,-123.135025,14.0,"(49.27029, -123.135025)",,,,,,
6th & Prince Edward,49.265242,-123.095577,0.0,"(49.265242, -123.095577)",,,,,,
Broughton & Davie,49.283749,-123.136133,0.0,"(49.283749, -123.136133)",,,,,,
Adanac & Lakewood,49.27751,-123.061429,1.0,"(49.27751, -123.061429)",,,,,,
Cypress & 10th,49.262944,-123.148109,0.0,"(49.262944, -123.148109)",,,,,,
Thunderbird Parkade,49.261655,-123.241924,3.0,"(49.261655, -123.241924)",,,,,,
Burrard Station (Melville & Dunsmuir),49.285871,-123.12105,12.0,"(49.285871, -123.12105)",,,,,,
22nd & Cambie,49.251358,-123.115637,0.0,"(49.251358, -123.115637)",,,,,,
Glen & Broadway,49.262242,-123.081459,11.0,"(49.262242, -123.081459)",,,,,,
Stanley Park - Totem Poles,49.298657,-123.121176,0.0,"(49.298657, -123.121176)",,,,,,
Davie & Beach,49.287528,-123.142139,19.0,"(49.287528, -123.142139)",,,,,,
Pender & Gore,49.280284,-123.097052,6.0,"(49.280284, -123.097052)",,,,,,
Richards & Davie,49.275683,-123.124388,0.0,"(49.275683, -123.124388)",,,,,,
Pender & Commercial,49.280332,-123.070068,9.0,"(49.280332, -123.070068)",,,,,,
18th & Cambie,49.254818,-123.114785,0.0,"(49.254818, -123.114785)",,,,,,
2nd & Commercial,49.268616,-123.069908,2.0,"(49.268616, -123.069908)",,,,,,
Wesbrook Village - Berton & Shrum,49.25478,-123.23621,3.0,"(49.25478, -123.23621)",,,,,,
Chilco & Robson,49.293257,-123.138563,16.0,"(49.293257, -123.138563)",,,,,,
Keefer & Columbia,49.279342,-123.101822,10.0,"(49.279342, -123.101822)",,,,,,
Rogers Tower,49.288682,-123.11818,14.0,"(49.288682, -123.11818)",,,,,,
Woodland & Graveley,49.270684,-123.073562,0.0,"(49.270684, -123.073562)",,,,,,
Cardero & Bayshore,49.291597,-123.129158,11.0,"(49.291597, -123.129158)",,,,,,
Nelson & Denman,49.2890705989865,-123.138407369468,13.0,"(49.2890705989865, -123.138407369468)",,,,,,
8th & Fraser,49.263382,-123.088837,1.0,"(49.263382, -123.088837)",,,,,,
Balaclava & 6th,49.266924,-123.173849,14.0,"(49.266924, -123.173849)",,,,,,
Cambie & Water,49.284605,-123.108662,30.0,"(49.284605, -123.108662)",,,,,,
Helmcken & Burrard,49.279938,-123.127478,4.0,"(49.279938, -123.127478)",,,,,,
Hornby & Pender,49.28602,-123.116624,20.0,"(49.28602, -123.116624)",,,,,,
7th & Heather,49.265089,-123.119425,1.0,"(49.265089, -123.119425)",,,,,,
Union & Dunlevy,49.277595,-123.09583,10.0,"(49.277595, -123.09583)",,,,,,
Richards & Helmcken,49.277141,-123.122589,4.0,"(49.277141, -123.122589)",,,,,,
Keefer & Abbott,49.279821,-123.10802,9.0,"(49.279821, -123.10802)",,,,,,
8th & Prince Edward,49.263518,-123.09568,0.0,"(49.263518, -123.09568)",,,,,,
,,,,"(49.290839, -123.127481)",Chilco & Barclay,"(49.291909, -123.140713)",13.0,Blue Edge Cafe,"510 Nicola St, Vancouver BC V6G 3J7",5.5
,,,,"(49.259164, -123.100851)",St George & Broadway,"(49.262321, -123.09306)",0.0,Lucky's Doughnuts,"2902 Main St, Vancouver BC V5T 3G3",
,,,,"(49.273221, -123.069352)",Britannia Parking Lot,"(49.275882, -123.071865)",0.0,Turk's Coffee Exchange,"1276 Commercial Dr, Vancouver BC V5L 3X4",
,,,,"(49.28964, -123.128677)",Morton & Denman,"(49.28803, -123.142135)",16.0,Dudoc Vancouver,"1445 Georgia St W (btwn Nicola & Broughton), Vancouver BC V6G 2T3",
,,,,"(49.280813, -123.085817)",Thornton & National,"(49.273777, -123.092723)",14.0,The Garden Strathcona,"868 Hastings St E, Vancouver BC V6A 1R6",
,,,,"(49.263687, -123.134407)",Burrard & 14th,"(49.259469, -123.145718)",1.0,Ooh la la Cappuccino Bar Ltd,"1333 Broadway W (Hemlock), Vancouver BC V6H 4C1",
,,,,"(49.263663, -123.112021)",Olympic Village Station,"(49.266314, -123.116011)",11.0,Jammer Cafe Motors Inc,"350 8th Ave W, Vancouver BC",
,,,,"(49.264138, -123.18018)",8th & Macdonald,"(49.264928, -123.168068)",4.0,C'est Mon Cafe,"3420W Broadway W, Vancouver BC V6R 2B3",
,,,,"(49.251867, -123.100717)",30th & Ontario,"(49.243375, -123.104978)",3.0,Hayan Mug,"3702 Main St, Vancouver BC V5V 3N7",
,,,,"(49.284167, -123.070117)",Lakewood & Triumph,"(49.283968, -123.061615)",3.0,The Narcissus,"1701 Powell St (Commercial Drive), Vancouver BC V5L 5C9",
,,,,"(49.263663, -123.112021)",13th & Cambie,"(49.259579, -123.114769)",7.0,Jammer Cafe Motors Inc,"350 8th Ave W, Vancouver BC",
,,,,"(49.249141, -123.155056)",Arbutus & Nanton,"(49.247854, -123.153422)",14.0,Starbucks,"2101 Lahb Ave (at Arbutus Street), Vancouver BC V6L 0B9",6.8
,,,,"(49.259164, -123.100851)",14th & Fraser,"(49.257939, -123.089531)",3.0,Lucky's Doughnuts,"2902 Main St, Vancouver BC V5T 3G3",
,,,,"(49.262614, -123.069508)",15th & Victoria (Trout Lake),"(49.256857, -123.065646)",5.0,Blenz Coffee,"2470 Commercial Dr (at E Broadway), Vancouver BC V5N 4B9",4.9
,,,,"(49.288158, -123.126278)",Robson & Hornby,"(49.282758, -123.122092)",11.0,Turf,"1281 W Georgia St (at Jervis Street), Vancouver BC V6B 5N6",
,,,,"(49.286212, -123.126923)",Cardero & Robson,"(49.289255, -123.132677)",13.0,Blenz Coffee Robson - Bute,"1201 Robson St, Vancouver BC V6E 1C2",
,,,,"(49.259916, -123.100752)",1st & Scotia,"(49.2685027, -123.0975014)",16.0,Roasting Time,"2818 Main St, Vancouver BC V5T 0C1",
,,,,"(49.259164, -123.100851)",10th & Fraser,"(49.26151, -123.089413)",2.0,Lucky's Doughnuts,"2902 Main St, Vancouver BC V5T 3G3",
,,,,"(49.259164, -123.100851)",Ontario & 5th,"(49.266724, -123.104824)",13.0,Lucky's Doughnuts,"2902 Main St, Vancouver BC V5T 3G3",
,,,,"(49.249021, -123.126262)",Heather & 16th,"(49.256845, -123.120071)",1.0,City One Cafe,"954 King Edward Ave W, Vancouver BC V5Z 2E2",
,,,,"(49.275181, -123.123791)",Richards & Smithe,"(49.279259, -123.119145)",1.0,JJ House of Coffee,"402 Davie St, Vancouver BC V6B 2G3",
,,,,"(49.273493, -123.122349)",Robson & Beatty,"(49.277773, -123.114237)",16.0,Fuse Pan Asian Cafe,"181 Roundhouse Mews, Vancouver BC V6Z 2W3",
,,,,"(49.285474, -123.11169)",Maple Tree Square,"(49.283482, -123.103738)",7.0,Station Express Cafe,"601 Cordova St W (on Westcoast Express Platform), Vancouver BC V6B 1G1",
,,,,"(49.259164, -123.100851)",22nd & Main,"(49.25094, -123.101306)",1.0,Lucky's Doughnuts,"2902 Main St, Vancouver BC V5T 3G3",
,,,,"(49.283549, -123.109741)",Carrall & Seawall,"(49.276294, -123.106534)",4.0,Nusa Coffee,"310 Cordova St W, Vancouver BC V6B 1E8",
,,,,"(49.273221, -123.069352)",Charles & Woodland,"(49.2731, -123.0732)",1.0,Turk's Coffee Exchange,"1276 Commercial Dr, Vancouver BC V5L 3X4",
,,,,"(49.263663, -123.112021)",1st & Manitoba,"(49.27023, -123.10651)",17.0,Jammer Cafe Motors Inc,"350 8th Ave W, Vancouver BC",
,,,,"(49.257457, -123.093325)",St Catherines & 7th,"(49.264466, -123.085183)",17.0,Tigers Drink House,"505E 15th Ave E (at St. George St), Vancouver BC V5T 4S4",
,,,,"(49.278368, -123.075549)",Triumph & Victoria,"(49.283986, -123.065264)",2.0,Coho Coffee,"1370 E Georgia St, Vancouver BC V5L 2A8",
,,,,"(49.259164, -123.100851)",18th & Main,"(49.254667, -123.101389)",2.0,Lucky's Doughnuts,"2902 Main St, Vancouver BC V5T 3G3",
,,,,"(49.253083, -123.08979)",St Catherines & 10th,"(49.261353, -123.085333)",0.0,Artisan Tea Bar,"3578 Fraser St, Vancouver BC V5V 4C6",
,,,,"(49.275053, -123.133757)",Nelson & Richards,"(49.277844, -123.120942)",1.0,Inbtwn Cafe,"1625 Hornby St, Vancouver BC V6Z 2M2",
,,,,"(49.267985, -123.154157)",Arbutus & 10th,"(49.262835, -123.152626)",6.0,Forty Ninth Parallel,"2152 4th Ave W, Vancouver BC V6K 1N6",
,,,,"(49.286212, -123.126923)",Comox & Denman,"(49.288444, -123.139203)",11.0,Blenz Coffee Robson - Bute,"1201 Robson St, Vancouver BC V6E 1C2",
,,,,"(49.25248, -123.101174)",Prince Edward & 14th,"(49.258352, -123.096337)",1.0,Cultivate Tea,"2280 Main St, Vancouver BC",
,,,,"(49.280346, -123.103545)",Alexander & Railway,"(49.283992, -123.091206)",7.0,Mr. Coffee,"39 Pender St E (btwn Carrall & Columbia St), Vancouver BC V6A 1S9",
,,,,"(49.290052, -123.130334)",Chilco & Beach,"(49.28972, -123.144028)",10.0,Daily Grind Cafe,"1500 Georgia St W (Nicola), Vancouver BC V6G 2Z6",
,,,,"(49.283427, -123.116383)",Richards & Cordova,"(49.284554, -123.111031)",14.0,Cultured Coffee & Tea,"678 Dunsmuir St (in Granville SkyTrain Station), Vancouver BC V6B 1N3",
,,,,"(49.267575, -123.252382)",Agronomy & East Mall,"(49.2617360647494, -123.246483808594)",15.0,Ike's Café,"1961 East Mall, Vancouver BC V6T 1Z1",5.0
,,,,"(49.267575, -123.252382)",Orchard Commons,"(49.259999, -123.250902)",10.0,Ike's Café,"1961 East Mall, Vancouver BC V6T 1Z1",5.0
,,,,"(49.267985, -123.154157)",Yew & Broadway,"(49.263523, -123.155267)",2.0,Forty Ninth Parallel,"2152 4th Ave W, Vancouver BC V6K 1N6",
,,,,"(49.253925, -123.067799)",Woodland & 10th,"(49.261263, -123.073707)",5.0,Chance Cafe,"3424 Commercial St (Victoria Diversion), Vancouver BC V5N 4E9",
,,,,"(49.263663, -123.112021)",Ontario & 16th,"(49.256825, -123.105234)",0.0,Jammer Cafe Motors Inc,"350 8th Ave W, Vancouver BC",
,,,,"(49.263448, -123.119627)",14th & Alder,"(49.258819, -123.131317)",2.0,Blenz Coffee,"695 Broadway W (at Heather St.), Vancouver BC V5Z 1G6",5.3
,,,,"(49.269427, -123.138548)",Chestnut & McNicoll,"(49.275938, -123.145939)",4.0,Tru Cafe,"1500 2nd Ave W, Vancouver BC V6J 1H2",
,,,,"(49.268615, -123.170754)",Dunbar & 6th,"(49.266636, -123.183661)",16.0,Artistry Coffee Shop,"2959 4th Ave W, Vancouver BC V6K 1R3",
,,,,"(49.290839, -123.127481)",Stanley Park - Vancouver Aquarium,"(49.299292, -123.130281)",2.0,Blue Edge Cafe,"510 Nicola St, Vancouver BC V6G 3J7",5.5
,,,,"(49.282058, -123.118456)",Yaletown-Roundhouse Station,"(49.274566, -123.121817)",8.0,Starbucks,"720 Granville St, Vancouver BC V6Z 1E4",
,,,,"(49.275691, -123.121158)",Smithe & Burrard,"(49.282503, -123.124697)",5.0,Analog Coffee,"338 Helmcken St (Hamilton), Vancouver BC V6B 6C5",
,,,,"(49.279631, -123.108028)",Abbott & Cordova,"(49.282759, -123.106955)",13.0,The Bakery,"566 Powell St (Princess Ave), Vancouver BC V6A 1G9",
,,,,"(49.263597, -123.205023)",Sasamat & 10th,"(49.264019, -123.209176)",7.0,Little Umbrella Coffee Shop,"4372 10th Ave W, Vancouver BC V6R 2H7",
,,,,"(49.267985, -123.154157)",Vine & 4th,"(49.268339, -123.157443)",1.0,Forty Ninth Parallel,"2152 4th Ave W, Vancouver BC V6K 1N6",
,,,,"(49.263663, -123.112021)",10th & Ontario,"(49.262062, -123.104656)",1.0,Jammer Cafe Motors Inc,"350 8th Ave W, Vancouver BC",
,,,,"(49.267985, -123.154157)",Pine & 10th,"(49.262822, -123.14338)",1.0,Forty Ninth Parallel,"2152 4th Ave W, Vancouver BC V6K 1N6",
,,,,"(49.264138, -123.18018)",Wallace & 4th,"(49.268974, -123.190701)",6.0,C'est Mon Cafe,"3420W Broadway W, Vancouver BC V6R 2B3",
,,,,"(49.27722, -123.126642)",Pacific & Richards,"(49.273663, -123.127075)",5.0,Blenz Coffee Granville - Davie,"700 Davie St, Vancouver BC V6Z 1M6",
,,,,"(49.260643, -123.124172)",7th &  Alder,"(49.265198, -123.131043)",2.0,Cafe Ami,"899 12th Ave W, Vancouver BC V5Z 1M9",5.0
,,,,"(49.287478, -123.119081)",Canada Place,"(49.287214, -123.11287)",9.0,Koffee,"1050 Pender St W, Vancouver BC V6E 3S7",
,,,,"(49.249021, -123.126262)",Heather & 18th,"(49.255034, -123.120226)",4.0,City One Cafe,"954 King Edward Ave W, Vancouver BC V5Z 2E2",
,,,,"(49.263421, -123.115731)",14th & Oak,"(49.258761, -123.127071)",0.0,Blenz Coffee,"521W Broadway W (at Cambie St), Vancouver BC V5Z 1E6",5.4
,,,,"(49.288734, -123.139307)",Bute & Comox,"(49.283343, -123.131099)",7.0,Yaas Café & Gelateria,"1040 Denman St (at Comox St), Vancouver BC V6G 2M5",
,,,,"(49.278903, -123.125163)",Comox & Broughton,"(49.285253, -123.134356)",0.0,3 Diamonds Organic Cafe,"1090 Howe St, Vancouver BC",
,,,,"(49.280346, -123.103545)",Station & Terminal,"(49.272172, -123.097978)",8.0,Mr. Coffee,"39 Pender St E (btwn Carrall & Columbia St), Vancouver BC V6A 1S9",
,,,,"(49.280346, -123.103545)",Stanley Park - Third Beach Parking Lot,"(49.302577, -123.155616)",11.0,Mr. Coffee,"39 Pender St E (btwn Carrall & Columbia St), Vancouver BC V6A 1S9",
,,,,"(49.273221, -123.069352)",Woodland & 4th,"(49.266751, -123.073501)",0.0,Turk's Coffee Exchange,"1276 Commercial Dr, Vancouver BC V5L 3X4",
,,,,"(49.263663, -123.112021)",8th & Ash,"(49.264215, -123.117772)",2.0,Jammer Cafe Motors Inc,"350 8th Ave W, Vancouver BC",
,,,,"(49.286212, -123.126923)",Burrard & Drake,"(49.27808, -123.130557)",0.0,Blenz Coffee Robson - Bute,"1201 Robson St, Vancouver BC V6E 1C2",
,,,,"(49.259164, -123.100851)",10th & Kingsway,"(49.261973, -123.09725)",1.0,Lucky's Doughnuts,"2902 Main St, Vancouver BC V5T 3G3",
,,,,"(49.263764, -123.138955)",10th & Oak,"(49.262255, -123.126217)",1.0,Murchie's Fine Tea,"1501 Broadway W (Granville Street), Vancouver BC V6J 4Z6",
,,,,"(49.280551, -123.099912)",Hawks & Union,"(49.277333, -123.087359)",9.0,Waves Coffee House,"495 Main St (at E Pender), Vancouver BC V6A 2T7",5.5
,,,,"(49.27722, -123.126642)",Marinaside & Cooperage,"(49.273833, -123.114373)",22.0,Blenz Coffee Granville - Davie,"700 Davie St, Vancouver BC V6Z 1M6",
,,,,"(49.285465, -123.120126)",Alberni & Jervis,"(49.28763, -123.127245)",13.0,Nami Vietnamese,"885 W Georgia St, Vancouver BC V6C 2G2",
,,,,"(49.267985, -123.154157)",7th & Arbutus,"(49.265605, -123.152566)",7.0,Forty Ninth Parallel,"2152 4th Ave W, Vancouver BC V6K 1N6",
,,,,"(49.263663, -123.112021)",14th & Ontario,"(49.25849, -123.104799)",1.0,Jammer Cafe Motors Inc,"350 8th Ave W, Vancouver BC",
,,,,"(49.249021, -123.126262)",King Edward & Cambie,"(49.249184, -123.116141)",1.0,City One Cafe,"954 King Edward Ave W, Vancouver BC V5Z 2E2",
,,,,"(49.267985, -123.154157)",1st & Fir,"(49.270783, -123.141564)",7.0,Forty Ninth Parallel,"2152 4th Ave W, Vancouver BC V6K 1N6",
,,,,"(49.266106, -123.152618)",Arbutus & 16th,"(49.257654, -123.153212)",1.0,Arbutus Coffee & Real Food Market,"2200 Arbutus St, Vancouver BC V6J 3Y1",
,,,,"(49.261299, -123.249405)",War Memorial Gym,"(49.2665793, -123.2485487)",3.0,Reboot Cafe,"2366 Main Mall (ICICS/CS Building), Vancouver BC V6T 1Z4",
,,,,"(49.249021, -123.126262)",28th & Willow,"(49.246243, -123.124373)",9.0,City One Cafe,"954 King Edward Ave W, Vancouver BC V5Z 2E2",
,,,,"(49.267985, -123.154157)",Arbutus Greenway & Fir,"(49.266774, -123.141135)",3.0,Forty Ninth Parallel,"2152 4th Ave W, Vancouver BC V6K 1N6",
,,,,"(49.267418, -123.25018)",West Mall Swing Space Building,"(49.263073, -123.254307)",18.0,Starbucks,"6138 Student Union Blvd (in Pacific Spirit Pl.), Vancouver BC V6T 1Z1",5.1
,,,,"(49.273221, -123.069352)",McLean & Pender,"(49.280427, -123.074082)",13.0,Turk's Coffee Exchange,"1276 Commercial Dr, Vancouver BC V5L 3X4",
,,,,"(49.285465, -123.120126)",Bute & Barclay,"(49.284893, -123.128685)",5.0,Nami Vietnamese,"885 W Georgia St, Vancouver BC V6C 2G2",
,,,,"(49.267985, -123.154157)",Balsam & Cornwall,"(49.273011, -123.159663)",0.0,Forty Ninth Parallel,"2152 4th Ave W, Vancouver BC V6K 1N6",
,,,,"(49.284616, -123.118269)",Hastings & Broughton,"(49.290112, -123.127062)",17.0,888 Caffe Express,"888 Dunsmuir St, Vancouver BC V6C 3K4",
,,,,"(49.281804, -123.111864)",Seymour & Cordova,"(49.28512, -123.11242)",13.0,Java Cat Cafe,"515 Hamilton St (Pender), Vancouver BC V6B 2R1",
,,,,"(49.263448, -123.119627)",Alder & 11th,"(49.261742, -123.13148)",0.0,Blenz Coffee,"695 Broadway W (at Heather St.), Vancouver BC V5Z 1G6",5.3
,,,,"(49.259164, -123.100851)",10th & Columbia,"(49.262206, -123.109091)",1.0,Lucky's Doughnuts,"2902 Main St, Vancouver BC V5T 3G3",
,,,,"(49.263663, -123.112021)",Heather & 14th,"(49.259183, -123.120126)",1.0,Jammer Cafe Motors Inc,"350 8th Ave W, Vancouver BC",
,,,,"(49.251258, -123.077794)",Commercial & 20th,"(49.252656, -123.067965)",1.0,Cedar Cottage Coffee House,"1303 Kingsway (at Clark Dr.), Vancouver BC V5V 3E3",
,,,,"(49.267985, -123.154157)",Kitsilano Beach Park,"(49.273355, -123.154493)",17.0,Forty Ninth Parallel,"2152 4th Ave W, Vancouver BC V6K 1N6",
,,,,"(49.27722, -123.126642)",Rolston & Granville,"(49.274232, -123.129998)",10.0,Blenz Coffee Granville - Davie,"700 Davie St, Vancouver BC V6Z 1M6",
,,,,"(49.284445, -123.110223)",Cordova & Bute,"(49.289124, -123.12196)",12.0,Cafe Monaco,"356 Water St, Vancouver BC V6B 1B6",
,,,,"(49.259164, -123.100851)",12th & Yukon (City Hall),"(49.260599, -123.113504)",2.0,Lucky's Doughnuts,"2902 Main St, Vancouver BC V5T 3G3",
,,,,"(49.26411, -123.186096)",Blenheim & 4th,"(49.268837, -123.177633)",9.0,Good Earth Coffee House,"2505 Alma St (Broadway), Vancouver BC V6R 3R8",
,,,,"(49.263663, -123.112021)",Wylie & 2nd,"(49.267725, -123.11311)",14.0,Jammer Cafe Motors Inc,"350 8th Ave W, Vancouver BC",
,,,,"(49.27722, -123.126642)",Thurlow & Pendrell,"(49.280881, -123.130672)",0.0,Blenz Coffee Granville - Davie,"700 Davie St, Vancouver BC V6Z 1M6",
,,,,"(49.263663, -123.112021)",14th & Cambie,"(49.258763, -123.115392)",2.0,Jammer Cafe Motors Inc,"350 8th Ave W, Vancouver BC",
,,,,"(49.282484, -123.111029)",Granville & Georgia,"(49.282409, -123.118541)",18.0,Saunter Coffee,"321 Pender St W, Vancouver BC V6B 1T3",
,,,,"(49.273221, -123.069352)",Grant & Commercial,"(49.271377, -123.069416)",0.0,Turk's Coffee Exchange,"1276 Commercial Dr, Vancouver BC V5L 3X4",
,,,,"(49.259164, -123.100851)",8th & Ontario,"(49.263837, -123.105173)",3.0,Lucky's Doughnuts,"2902 Main St, Vancouver BC V5T 3G3",
,,,,"(49.283427, -123.116383)",Hornby & Nelson,"(49.28062, -123.12482)",4.0,Cultured Coffee & Tea,"678 Dunsmuir St (in Granville SkyTrain Station), Vancouver BC V6B 1N3",
,,,,"(49.281804, -123.111864)",šxʷƛ̓ənəq Xwtl'e7énḵ Square - Vancouver Art Gallery,"(49.283227, -123.120523)",7.0,Java Cat Cafe,"515 Hamilton St (Pender), Vancouver BC V6B 2R1",
,,,,"(49.284445, -123.110223)",Dunsmuir & Beatty,"(49.279764, -123.110154)",16.0,Cafe Monaco,"356 Water St, Vancouver BC V6B 1B6",
,,,,"(49.281941, -123.133372)",Robson & Granville,"(49.281506, -123.120101)",2.0,Blenz Coffee,"1203 Davie St (at Bute St), Vancouver BC V6E 1N4",6.0
,,,,"(49.273221, -123.069352)",4th & Commercial,"(49.266969, -123.069936)",0.0,Turk's Coffee Exchange,"1276 Commercial Dr, Vancouver BC V5L 3X4",
,,,,"(49.263663, -123.112021)",8th & Scotia,"(49.263635, -123.099236)",1.0,Jammer Cafe Motors Inc,"350 8th Ave W, Vancouver BC",
,,,,"(49.274883, -123.121251)",Homer & Robson (Vancouver Public Library),"(49.279739, -123.116251)",3.0,Black Echo Coffee,"1144 Mainland St (btwn Helmcken & Davie), Vancouver BC V6B 2T9",
,,,,"(49.263171, -123.126091)",7th & Granville,"(49.2653, -123.13811)",5.0,Dalina,"992 West Broadway (Oak Street), Vancouver BC V5Z 1K7",
,,,,"(49.286212, -123.126923)",Harwood & Bute,"(49.28026, -123.135244)",2.0,Blenz Coffee Robson - Bute,"1201 Robson St, Vancouver BC V6E 1C2",
,,,,"(49.280213, -123.107023)",Creekside Park North,"(49.2756, -123.102661)",9.0,Bubble King Tea House,"88 Pender St W, Vancouver BC V6B 6N9",
,,,,"(49.285738, -123.12234)",Nicola & Robson,"(49.2885056, -123.1312375)",2.0,Connoisseurs' Coffee,"1075 Georgia St W (Thurlow), Vancouver BC V6E 3C9",
,,,,"(49.269885, -123.069313)",10th & Commercial,"(49.261403, -123.070102)",7.0,Liberty Commercial Drive,"1670 Commercial Dr (1st Avenue), Vancouver BC",
,,,,"(49.263663, -123.112021)",10th & Cambie,"(49.262487, -123.114397)",8.0,Jammer Cafe Motors Inc,"350 8th Ave W, Vancouver BC",
,,,,"(49.267234, -123.090505)",Quebec & 1st,"(49.27033, -123.10275)",9.0,Momento Coffee House,"577 Great Northern Way, Vancouver BC V5T 1E1",
,,,,"(49.284167, -123.070117)",Lakewood & Oxford,"(49.285575, -123.061575)",5.0,The Narcissus,"1701 Powell St (Commercial Drive), Vancouver BC V5L 5C9",
,,,,"(49.261311, -123.10079)",Carolina & Great Northern Way,"(49.267266, -123.090786)",12.0,Novella Coffee Bar,"2650 Main St (E 11th Ave), Vancouver BC V5T 3E6",
,,,,"(49.263663, -123.112021)",Columbia & 5th,"(49.266476, -123.109389)",18.0,Jammer Cafe Motors Inc,"350 8th Ave W, Vancouver BC",
,,,,"(49.23503, -123.161628)",East Blvd & 37th,"(49.238105, -123.154966)",13.0,Rose House Vancouver,"5687 Balsam St (W 41st Av. at Balsam St.), Vancouver BC V6M 4B5",
,,,,"(49.267985, -123.154157)",Trafalgar & Cornwall,"(49.272969, -123.164325)",5.0,Forty Ninth Parallel,"2152 4th Ave W, Vancouver BC V6K 1N6",
,,,,"(49.267985, -123.154157)",5th & Arbutus,"(49.267222, -123.153157)",3.0,Forty Ninth Parallel,"2152 4th Ave W, Vancouver BC V6K 1N6",
,,,,"(49.289558, -123.132807)",Stanley Park - Information Booth,"(49.297933, -123.130758)",1.0,Market Veranda,"1610 Robson St, Vancouver BC V6G 1C7",
,,,,"(49.25248, -123.101174)",14th & Main,"(49.258425, -123.100792)",0.0,Cultivate Tea,"2280 Main St, Vancouver BC",
,,,,"(49.280213, -123.107023)",Georgia & Main,"(49.278529, -123.100017)",17.0,Bubble King Tea House,"88 Pender St W, Vancouver BC V6B 6N9",
,,,,"(49.264401, -123.180121)",Alma & Point Grey,"(49.27247, -123.185643)",5.0,Storm City Coffee,"3403 Broadway W, Vancouver BC V6R 2B4",
,,,,"(49.259164, -123.100851)",20th & Main,"(49.252691, -123.101289)",4.0,Lucky's Doughnuts,"2902 Main St, Vancouver BC V5T 3G3",
,,,,"(49.283122, -123.110921)",Nelson & Mainland,"(49.276436, -123.11877)",6.0,VFS Cafe,"420 Homer St (Carrall), Vancouver BC",
,,,,"(49.263843, -123.170506)",Point Grey & Blenheim,"(49.271471, -123.17731)",9.0,JJ Bean,"2902 Broadway W (at MacKenzie St.), Vancouver BC V6K 2G8",
,,,,"(49.263663, -123.112021)",Yukon & 6th,"(49.265939, -123.1129)",12.0,Jammer Cafe Motors Inc,"350 8th Ave W, Vancouver BC",
,,,,"(49.267985, -123.154157)",Burrard & 7th,"(49.265336, -123.145823)",3.0,Forty Ninth Parallel,"2152 4th Ave W, Vancouver BC V6K 1N6",
,,,,"(49.256895, -123.126934)",14th & Granville,"(49.25894, -123.139272)",5.0,Whitewood Coffee Ltd,"3208 Oak St, Vancouver BC V6H 2L3",
,,,,"(49.280849, -123.057015)",Wall & Eton,"(49.287464, -123.060771)",14.0,Steam Tea House,"2342 Hastings St E (E Hastings St & Nanaimo St), Vancouver BC V5L 1V5",
,,,,"(49.289558, -123.132807)",Beach & Cardero,"(49.283298, -123.142288)",6.0,Market Veranda,"1610 Robson St, Vancouver BC V6G 1C7",
,,,,"(49.267985, -123.154157)",Cypress & 4th,"(49.268269, -123.147885)",14.0,Forty Ninth Parallel,"2152 4th Ave W, Vancouver BC V6K 1N6",
,,,,"(49.290052, -123.130334)",Bute & Robson,"(49.285836, -123.127265)",0.0,Daily Grind Cafe,"1500 Georgia St W (Nicola), Vancouver BC V6G 2Z6",
,,,,"(49.283122, -123.110921)",Richards & Robson,"(49.280216, -123.117639)",2.0,VFS Cafe,"420 Homer St (Carrall), Vancouver BC",
,,,,"(49.273221, -123.069352)",Glen & Union,"(49.277469, -123.081315)",13.0,Turk's Coffee Exchange,"1276 Commercial Dr, Vancouver BC V5L 3X4",
,,,,"(49.263663, -123.112021)",8th & Yukon,"(49.263962, -123.112621)",0.0,Jammer Cafe Motors Inc,"350 8th Ave W, Vancouver BC",
,,,,"(49.267985, -123.154157)",1st & Chestnut,"(49.270721, -123.146175)",22.0,Forty Ninth Parallel,"2152 4th Ave W, Vancouver BC V6K 1N6",
,,,,"(49.263663, -123.112021)",10th & Main,"(49.262141, -123.101961)",0.0,Jammer Cafe Motors Inc,"350 8th Ave W, Vancouver BC",
,,,,"(49.284445, -123.110223)",Georgia & Homer,"(49.280787, -123.115271)",5.0,Cafe Monaco,"356 Water St, Vancouver BC V6B 1B6",
,,,,"(49.267985, -123.154157)",York & Yew,"(49.271741, -123.155421)",12.0,Forty Ninth Parallel,"2152 4th Ave W, Vancouver BC V6K 1N6",
,,,,"(49.280213, -123.107023)",Ontario & Seawall,"(49.271721, -123.104207)",16.0,Bubble King Tea House,"88 Pender St W, Vancouver BC V6B 6N9",
,,,,"(49.270961, -123.140706)",10th & Granville,"(49.262598, -123.138921)",10.0,M R Coffee Ltd,"1612 1st Ave W, Vancouver BC V6J 1G1",
,,,,"(49.262614, -123.069508)",15th & Knight,"(49.256496, -123.075426)",6.0,Blenz Coffee,"2470 Commercial Dr (at E Broadway), Vancouver BC V5N 4B9",4.9
,,,,"(49.25248, -123.101174)",Ontario & 23rd,"(49.249722, -123.104991)",0.0,Cultivate Tea,"2280 Main St, Vancouver BC",
,,,,"(49.263843, -123.170506)",Dunbar & Broadway,"(49.264579, -123.18373)",25.0,JJ Bean,"2902 Broadway W (at MacKenzie St.), Vancouver BC V6K 2G8",
,,,,"(49.283549, -123.109741)",Carrall & Hastings,"(49.28117, -123.104419)",10.0,Nusa Coffee,"310 Cordova St W, Vancouver BC V6B 1E8",
,,,,"(49.269885, -123.069313)",8th & Commercial,"(49.263242, -123.070521)",9.0,Liberty Commercial Drive,"1670 Commercial Dr (1st Avenue), Vancouver BC",
,,,,"(49.260643, -123.124172)",Charleson Park,"(49.267628, -123.127698)",8.0,Cafe Ami,"899 12th Ave W, Vancouver BC V5Z 1M9",5.0
,,,,"(49.27722, -123.126642)",Beach & Hornby,"(49.275295, -123.132585)",18.0,Blenz Coffee Granville - Davie,"700 Davie St, Vancouver BC V6Z 1M6",
,,,,"(49.269687, -123.095905)",Princess & Union,"(49.277615, -123.091654)",6.0,Cookies of Course,"401 Industrial Ave (at Station St), Vancouver BC V6A 2P8",
,,,,"(49.263663, -123.112021)",3rd & Quebec,"(49.268216, -123.103168)",10.0,Jammer Cafe Motors Inc,"350 8th Ave W, Vancouver BC",
,,,,"(49.288734, -123.139307)",Stanley Park - Second Beach South,"(49.294318, -123.148808)",16.0,Yaas Café & Gelateria,"1040 Denman St (at Comox St), Vancouver BC V6G 2M5",
,,,,"(49.259164, -123.100851)",6th & Carolina,"(49.265213, -123.090785)",0.0,Lucky's Doughnuts,"2902 Main St, Vancouver BC V5T 3G3",
,,,,"(49.267575, -123.252382)",UBC Bookstore,"(49.265207, -123.250139)",4.0,Ike's Café,"1961 East Mall, Vancouver BC V6T 1Z1",5.0
,,,,"(49.26411, -123.186096)",Balaclava & Broadway,"(49.264483, -123.173926)",14.0,Good Earth Coffee House,"2505 Alma St (Broadway), Vancouver BC V6R 3R8",
,,,,"(49.283858, -123.111876)",Expo & Carrall,"(49.278004, -123.105664)",14.0,Waves Coffee House,"492 Hastings St W (at Richards St), Vancouver BC V6B 1L1",5.7
,,,,"(49.27722, -123.126642)",Beach & Seymour,"(49.273568, -123.129935)",9.0,Blenz Coffee Granville - Davie,"700 Davie St, Vancouver BC V6Z 1M6",
,,,,"(49.25248, -123.101174)",27th & Main,"(49.247204, -123.101549)",2.0,Cultivate Tea,"2280 Main St, Vancouver BC",
,,,,"(49.25248, -123.101174)",Stanley Park - Second Beach North,"(49.29534, -123.150433)",14.0,Cultivate Tea,"2280 Main St, Vancouver BC",
,,,,"(49.262614, -123.069508)",Keith & 6th,"(49.265005, -123.079481)",18.0,Blenz Coffee,"2470 Commercial Dr (at E Broadway), Vancouver BC V5N 4B9",4.9
,,,,"(49.264157, -123.184722)",Jericho Beach,"(49.271221, -123.191133)",6.0,Nebur-King Coffee Group,"3646W Broadway W (at Alma St), Vancouver BC V6R 2B7",
,,,,"(49.263843, -123.170506)",Point Grey & Bayswater,"(49.271044, -123.170661)",15.0,JJ Bean,"2902 Broadway W (at MacKenzie St.), Vancouver BC V6K 2G8",
,,,,"(49.272758, -123.069718)",7th & Woodland,"(49.264251, -123.073853)",6.0,Abruzzo Cappuccino Bar,"1321 Commercial Dr (Charles), Vancouver BC V5L 3X5",
,,,,"(49.27722, -123.126642)",Aquatic Centre,"(49.27821, -123.136972)",5.0,Blenz Coffee Granville - Davie,"700 Davie St, Vancouver BC V6Z 1M6",
,,,,"(49.278903, -123.125163)",Georgia & Thurlow,"(49.285953, -123.124066)",2.0,3 Diamonds Organic Cafe,"1090 Howe St, Vancouver BC",
,,,,"(49.283427, -123.116383)",Cordova & Granville,"(49.2856698, -123.1125432)",12.0,Cultured Coffee & Tea,"678 Dunsmuir St (in Granville SkyTrain Station), Vancouver BC V6B 1N3",
,,,,"(49.280726, -123.131159)",Vanier Park,"(49.275717, -123.142564)",16.0,Latin Square,"1105 Davie St (Thurlow Street), Vancouver BC",
,,,,"(49.267985, -123.154157)",Trafalgar & Broadway,"(49.264326, -123.164725)",6.0,Forty Ninth Parallel,"2152 4th Ave W, Vancouver BC V6K 1N6",
,,,,"(49.273221, -123.069352)",Napier & Commercial,"(49.274881, -123.069323)",1.0,Turk's Coffee Exchange,"1276 Commercial Dr, Vancouver BC V5L 3X4",
,,,,"(49.263663, -123.112021)",7th & Laurel,"(49.265071, -123.123864)",0.0,Jammer Cafe Motors Inc,"350 8th Ave W, Vancouver BC",
,,,,"(49.280213, -123.107023)",Science World,"(49.273691, -123.102232)",9.0,Bubble King Tea House,"88 Pender St W, Vancouver BC V6B 6N9",
,,,,"(49.273221, -123.069352)",Pender & Victoria,"(49.280197, -123.065859)",1.0,Turk's Coffee Exchange,"1276 Commercial Dr, Vancouver BC V5L 3X4",
,,,,"(49.263764, -123.138955)",Cypress & 16th,"(49.25741, -123.148531)",5.0,Murchie's Fine Tea,"1501 Broadway W (Granville Street), Vancouver BC V6J 4Z6",
,,,,"(49.263663, -123.112021)",Spyglass & Seawall,"(49.270877, -123.115103)",8.0,Jammer Cafe Motors Inc,"350 8th Ave W, Vancouver BC",
,,,,"(49.275902, -123.100166)",Keefer & Hawks,"(49.279235, -123.087528)",15.0,T-Rex Urban Food & Coffee,"1001 Main St (at Milross Ave), Vancouver BC V6A 4L4",
,,,,"(49.249021, -123.126262)",29th & Cambie,"(49.245135, -123.116098)",6.0,City One Cafe,"954 King Edward Ave W, Vancouver BC V5Z 2E2",
,,,,"(49.26987, -123.069474)",Victoria & 10th,"(49.261188, -123.066009)",0.0,Caffe Napoli,"1670 Commercial Dr (1st avenue east), Vancouver BC V5L 3Y4",
,,,,"(49.273221, -123.069352)",Commercial & Adanac,"(49.277436, -123.070427)",0.0,Turk's Coffee Exchange,"1276 Commercial Dr, Vancouver BC V5L 3X4",
,,,,"(49.25248, -123.101174)",Columbia & 14th,"(49.258902, -123.109596)",0.0,Cultivate Tea,"2280 Main St, Vancouver BC",
,,,,"(49.284616, -123.118269)",Dunsmuir & Richards,"(49.282214, -123.114101)",10.0,888 Caffe Express,"888 Dunsmuir St, Vancouver BC V6C 3K4",
,,,,"(49.280462, -123.097552)",Campbell & Hastings,"(49.280852, -123.084746)",7.0,Klaus's Kaffee Haus,"291 Pender St E, Vancouver BC V6A 1T8",
,,,,"(49.284167, -123.070117)",Franklin & Nanaimo,"(49.282087, -123.056909)",4.0,The Narcissus,"1701 Powell St (Commercial Drive), Vancouver BC V5L 5C9",
,,,,"(49.273221, -123.069352)",Charles & Commercial,"(49.273103, -123.069892)",3.0,Turk's Coffee Exchange,"1276 Commercial Dr, Vancouver BC V5L 3X4",
,,,,"(49.267575, -123.252382)",Strangway Building,"(49.2661087286495, -123.2456811408)",6.0,Ike's Café,"1961 East Mall, Vancouver BC V6T 1Z1",5.0
,,,,"(49.27722, -123.126642)",Beatty & Nelson,"(49.275679, -123.116963)",3.0,Blenz Coffee Granville - Davie,"700 Davie St, Vancouver BC V6Z 1M6",
,,,,"(49.27311, -123.203169)",Trimble & 8th,"(49.2658, -123.20596)",10.0,NSCS Discovery Cafe,"1515 Discovery St (Belmont Ave), Vancouver BC V6R 4K5",
,,,,"(49.27722, -123.126642)",David Lam Park,"(49.270905, -123.126006)",18.0,Blenz Coffee Granville - Davie,"700 Davie St, Vancouver BC V6Z 1M6",
,,,,"(49.267985, -123.154157)",Burrard & 4th,"(49.267859, -123.145782)",8.0,Forty Ninth Parallel,"2152 4th Ave W, Vancouver BC V6K 1N6",
,,,,"(49.267985, -123.154157)",Cypress & Cornwall,"(49.272827, -123.147744)",20.0,Forty Ninth Parallel,"2152 4th Ave W, Vancouver BC V6K 1N6",
,,,,"(49.281103, -123.104583)",Keefer & Princess,"(49.279369, -123.091241)",0.0,Aiyaohno Cafe,"425 Carrall St, Vancouver BC V6B 6E3",
,,,,"(49.290052, -123.130334)",Bidwell & Burnaby,"(49.28526, -123.141809)",15.0,Daily Grind Cafe,"1500 Georgia St W (Nicola), Vancouver BC V6G 2Z6",
,,,,"(49.25248, -123.101174)",11th & Kingsway,"(49.261122, -123.097571)",1.0,Cultivate Tea,"2280 Main St, Vancouver BC",
,,,,"(49.283122, -123.110921)",Pender & Burrard,"(49.287097, -123.118551)",24.0,VFS Cafe,"420 Homer St (Carrall), Vancouver BC",
,,,,"(49.263663, -123.112021)",Columbia & 1st,"(49.269969, -123.109623)",10.0,Jammer Cafe Motors Inc,"350 8th Ave W, Vancouver BC",
,,,,"(49.289558, -123.132807)",Melville & Bute,"(49.287782, -123.12395)",14.0,Market Veranda,"1610 Robson St, Vancouver BC V6G 1C7",
,,,,"(49.276876, -123.13083)",Anderson & 2nd,"(49.269361, -123.13782)",17.0,Nebur-King Coffee,"1359 Hornby St (Pacific Ave), Vancouver BC V6Z 1W7",
,,,,"(49.263663, -123.112021)",5th & Main,"(49.266456, -123.100324)",4.0,Jammer Cafe Motors Inc,"350 8th Ave W, Vancouver BC",
,,,,"(49.280213, -123.107023)",Alexander & Dunlevy,"(49.284062, -123.095097)",3.0,Bubble King Tea House,"88 Pender St W, Vancouver BC V6B 6N9",
,,,,"(49.25248, -123.101174)",13th & St George,"(49.258817, -123.092797)",3.0,Cultivate Tea,"2280 Main St, Vancouver BC",
,,,,"(49.275687, -123.077918)",Commercial & Pandora,"(49.283236, -123.070443)",15.0,Roaster Central,"1015 Clark Dr, Vancouver BC V5L 3K1",
,,,,"(49.27265, -123.069953)",Grandview & Commercial,"(49.263746, -123.069892)",14.0,Toscani Coffee Bar,"1321 Commercial Dr, Vancouver BC V5L 3X5",
,,,,"(49.281103, -123.104583)",Expo & Smithe,"(49.276115, -123.114496)",11.0,Aiyaohno Cafe,"425 Carrall St, Vancouver BC V6B 6E3",
,,,,"(49.263764, -123.138955)",Cypress & 14th,"(49.25919, -123.148268)",3.0,Murchie's Fine Tea,"1501 Broadway W (Granville Street), Vancouver BC V6J 4Z6",
,,,,"(49.26223, -123.245109)",Brock Commons,"(49.269172, -123.25279)",1.0,Caffe Perugia,"2350 Health Sciences Mall Life Ctr (Agronomy Rd), Vancouver BC V6T 1Z3",
,,,,"(49.286346, -123.127908)",Beach & Broughton,"(49.281301, -123.139108)",11.0,Little Cafe,"1258 Robson St, Vancouver BC V6E 1C1",5.5
,,,,"(49.25877, -123.138934)",Arbutus Greenway & 14th,"(49.258924, -123.152591)",1.0,Phoscao Cafe,"3007 Granville St, Vancouver BC V6H 3J9",5.4
,,,,"(49.280213, -123.107023)",Alexander & Main,"(49.284157, -123.099917)",14.0,Bubble King Tea House,"88 Pender St W, Vancouver BC V6B 6N9",
,,,,"(49.282058, -123.118456)",Hornby & Drake,"(49.277178, -123.13)",3.0,Starbucks,"720 Granville St, Vancouver BC V6Z 1E4",
,,,,"(49.264138, -123.18018)",Highbury & 8th,"(49.265442, -123.187738)",13.0,C'est Mon Cafe,"3420W Broadway W, Vancouver BC V6R 2B3",
,,,,"(49.267575, -123.252382)",Pharmaceutical Sciences,"(49.26262, -123.2431)",2.0,Ike's Café,"1961 East Mall, Vancouver BC V6T 1Z1",5.0
,,,,"(49.286212, -123.126923)",Haro & Denman,"(49.290587, -123.13625)",11.0,Blenz Coffee Robson - Bute,"1201 Robson St, Vancouver BC V6E 1C2",
,,,,"(49.262672, -123.092227)",Windsor & 14th,"(49.257985, -123.083366)",12.0,The Paper Crane,"531 Broadway E, Vancouver BC V5T 1X4",5.3
,,,,"(49.25248, -123.101174)",Prince Edward & 16th,"(49.256694, -123.096579)",3.0,Cultivate Tea,"2280 Main St, Vancouver BC",
,,,,"(49.286212, -123.126923)",Cardero & Davie,"(49.285512, -123.1384)",1.0,Blenz Coffee Robson - Bute,"1201 Robson St, Vancouver BC V6E 1C2",
,,,,"(49.263663, -123.112021)",Stamps Landing,"(49.26893, -123.11813)",6.0,Jammer Cafe Motors Inc,"350 8th Ave W, Vancouver BC",
,,,,"(49.282058, -123.118456)",Marinaside & Davie,"(49.273471, -123.118016)",21.0,Starbucks,"720 Granville St, Vancouver BC V6Z 1E4",
,,,,"(49.273221, -123.069352)",Adanac & McLean,"(49.277665, -123.073653)",14.0,Turk's Coffee Exchange,"1276 Commercial Dr, Vancouver BC V5L 3X4",
,,,,"(49.28964, -123.128677)",Bute & Davie,"(49.282055, -123.133045)",2.0,Dudoc Vancouver,"1445 Georgia St W (btwn Nicola & Broughton), Vancouver BC V6G 2T3",
,,,,"(49.273221, -123.069352)",Victoria & 4th,"(49.266725, -123.065925)",5.0,Turk's Coffee Exchange,"1276 Commercial Dr, Vancouver BC V5L 3X4",
,,,,"(49.249021, -123.126262)",Heather & 29th,"(49.245535, -123.120496)",7.0,City One Cafe,"954 King Edward Ave W, Vancouver BC V5Z 2E2",
,,,,"(49.267985, -123.154157)",McNicoll & Arbutus,"(49.276292, -123.150592)",12.0,Forty Ninth Parallel,"2152 4th Ave W, Vancouver BC V6K 1N6",
,,,,"(49.285465, -123.120126)",Jervis & Robson,"(49.28691, -123.128818)",1.0,Nami Vietnamese,"885 W Georgia St, Vancouver BC V6C 2G2",
,,,,"(49.26223, -123.245109)",IK Barber Learning Centre,"(49.267561, -123.252261)",0.0,Caffe Perugia,"2350 Health Sciences Mall Life Ctr (Agronomy Rd), Vancouver BC V6T 1Z3",
,,,,"(49.27722, -123.126642)",Granville Island,"(49.27029, -123.135025)",14.0,Blenz Coffee Granville - Davie,"700 Davie St, Vancouver BC V6Z 1M6",
,,,,"(49.259164, -123.100851)",6th & Prince Edward,"(49.265242, -123.095577)",0.0,Lucky's Doughnuts,"2902 Main St, Vancouver BC V5T 3G3",
,,,,"(49.27722, -123.126642)",Broughton & Davie,"(49.283749, -123.136133)",0.0,Blenz Coffee Granville - Davie,"700 Davie St, Vancouver BC V6Z 1M6",
,,,,"(49.273221, -123.069352)",Adanac & Lakewood,"(49.27751, -123.061429)",1.0,Turk's Coffee Exchange,"1276 Commercial Dr, Vancouver BC V5L 3X4",
,,,,"(49.267985, -123.154157)",Cypress & 10th,"(49.262944, -123.148109)",0.0,Forty Ninth Parallel,"2152 4th Ave W, Vancouver BC V6K 1N6",
,,,,"(49.267418, -123.25018)",Thunderbird Parkade,"(49.261655, -123.241924)",3.0,Starbucks,"6138 Student Union Blvd (in Pacific Spirit Pl.), Vancouver BC V6T 1Z1",5.1
,,,,"(49.286602, -123.113327)",Burrard Station (Melville & Dunsmuir),"(49.285871, -123.12105)",12.0,Blenz Coffee,"250 Howe St (at Waterfront Centre), Vancouver BC V6C 3R8",5.6
,,,,"(49.249021, -123.126262)",22nd & Cambie,"(49.251358, -123.115637)",0.0,City One Cafe,"954 King Edward Ave W, Vancouver BC V5Z 2E2",
,,,,"(49.262614, -123.069508)",Glen & Broadway,"(49.262242, -123.081459)",11.0,Blenz Coffee,"2470 Commercial Dr (at E Broadway), Vancouver BC V5N 4B9",4.9
,,,,"(49.290839, -123.127481)",Stanley Park - Totem Poles,"(49.298657, -123.121176)",0.0,Blue Edge Cafe,"510 Nicola St, Vancouver BC V6G 3J7",5.5
,,,,"(49.281153, -123.132656)",Davie & Beach,"(49.287528, -123.142139)",19.0,Trees Cheesecake & Organic Coffee,"1160 Davie St, Vancouver BC V6E 1N1",
,,,,"(49.280213, -123.107023)",Pender & Gore,"(49.280284, -123.097052)",6.0,Bubble King Tea House,"88 Pender St W, Vancouver BC V6B 6N9",
,,,,"(49.280726, -123.131159)",Richards & Davie,"(49.275683, -123.124388)",0.0,Latin Square,"1105 Davie St (Thurlow Street), Vancouver BC",
,,,,"(49.273221, -123.069352)",Pender & Commercial,"(49.280332, -123.070068)",9.0,Turk's Coffee Exchange,"1276 Commercial Dr, Vancouver BC V5L 3X4",
,,,,"(49.260643, -123.124172)",18th & Cambie,"(49.254818, -123.114785)",0.0,Cafe Ami,"899 12th Ave W, Vancouver BC V5Z 1M9",5.0
,,,,"(49.273221, -123.069352)",2nd & Commercial,"(49.268616, -123.069908)",2.0,Turk's Coffee Exchange,"1276 Commercial Dr, Vancouver BC V5L 3X4",
,,,,"(49.253982, -123.235073)",Wesbrook Village - Berton & Shrum,"(49.25478, -123.23621)",3.0,Blenz Coffee,"3381 Wesbrook Mall (at Gray Ave.), Vancouver BC V6S 0B1",6.9
,,,,"(49.290839, -123.127481)",Chilco & Robson,"(49.293257, -123.138563)",16.0,Blue Edge Cafe,"510 Nicola St, Vancouver BC V6G 3J7",5.5
,,,,"(49.283122, -123.110921)",Keefer & Columbia,"(49.279342, -123.101822)",10.0,VFS Cafe,"420 Homer St (Carrall), Vancouver BC",
,,,,"(49.284445, -123.110223)",Rogers Tower,"(49.288682, -123.11818)",14.0,Cafe Monaco,"356 Water St, Vancouver BC V6B 1B6",
,,,,"(49.273221, -123.069352)",Woodland & Graveley,"(49.270684, -123.073562)",0.0,Turk's Coffee Exchange,"1276 Commercial Dr, Vancouver BC V5L 3X4",
,,,,"(49.286212, -123.126923)",Cardero & Bayshore,"(49.291597, -123.129158)",11.0,Blenz Coffee Robson - Bute,"1201 Robson St, Vancouver BC V6E 1C2",
,,,,"(49.286212, -123.126923)",Nelson & Denman,"(49.2890705989865, -123.138407369468)",13.0,Blenz Coffee Robson - Bute,"1201 Robson St, Vancouver BC V6E 1C2",
,,,,"(49.259164, -123.100851)",8th & Fraser,"(49.263382, -123.088837)",1.0,Lucky's Doughnuts,"2902 Main St, Vancouver BC V5T 3G3",
,,,,"(49.26411, -123.186096)",Balaclava & 6th,"(49.266924, -123.173849)",14.0,Good Earth Coffee House,"2505 Alma St (Broadway), Vancouver BC V6R 3R8",
,,,,"(49.286602, -123.113327)",Cambie & Water,"(49.284605, -123.108662)",30.0,Blenz Coffee,"250 Howe St (at Waterfront Centre), Vancouver BC V6C 3R8",5.6
,,,,"(49.273493, -123.122349)",Helmcken & Burrard,"(49.279938, -123.127478)",4.0,Fuse Pan Asian Cafe,"181 Roundhouse Mews, Vancouver BC V6Z 2W3",
,,,,"(49.283549, -123.109741)",Hornby & Pender,"(49.28602, -123.116624)",20.0,Nusa Coffee,"310 Cordova St W, Vancouver BC V6B 1E8",
,,,,"(49.263663, -123.112021)",7th & Heather,"(49.265089, -123.119425)",1.0,Jammer Cafe Motors Inc,"350 8th Ave W, Vancouver BC",
,,,,"(49.280213, -123.107023)",Union & Dunlevy,"(49.277595, -123.09583)",10.0,Bubble King Tea House,"88 Pender St W, Vancouver BC V6B 6N9",
,,,,"(49.27722, -123.126642)",Richards & Helmcken,"(49.277141, -123.122589)",4.0,Blenz Coffee Granville - Davie,"700 Davie St, Vancouver BC V6Z 1M6",
,,,,"(49.283549, -123.109741)",Keefer & Abbott,"(49.279821, -123.10802)",9.0,Nusa Coffee,"310 Cordova St W, Vancouver BC V6B 1E8",
,,,,"(49.259164, -123.100851)",8th & Prince Edward,"(49.263518, -123.09568)",0.0,Lucky's Doughnuts,"2902 Main St, Vancouver BC V5T 3G3",
,,,,"(49.290839, -123.127481)",Chilco & Barclay,"(49.291909, -123.140713)",4.0,Blue Edge Cafe,"510 Nicola St, Vancouver BC V6G 3J7",5.5
,,,,"(49.259164, -123.100851)",St George & Broadway,"(49.262321, -123.09306)",6.0,Lucky's Doughnuts,"2902 Main St, Vancouver BC V5T 3G3",
,,,,"(49.275687, -123.077918)",Britannia Parking Lot,"(49.275882, -123.071865)",8.0,Roaster Central,"1015 Clark Dr, Vancouver BC V5L 3K1",
,,,,"(49.28964, -123.128677)",Morton & Denman,"(49.28803, -123.142135)",8.0,Dudoc Vancouver,"1445 Georgia St W (btwn Nicola & Broughton), Vancouver BC V6G 2T3",
,,,,"(49.280813, -123.085817)",Thornton & National,"(49.273777, -123.092723)",7.0,The Garden Strathcona,"868 Hastings St E, Vancouver BC V6A 1R6",
,,,,"(49.263687, -123.134407)",Burrard & 14th,"(49.259469, -123.145718)",4.0,Ooh la la Cappuccino Bar Ltd,"1333 Broadway W (Hemlock), Vancouver BC V6H 4C1",
,,,,"(49.263663, -123.112021)",Olympic Village Station,"(49.266314, -123.116011)",11.0,Jammer Cafe Motors Inc,"350 8th Ave W, Vancouver BC",
,,,,"(49.264138, -123.18018)",8th & Macdonald,"(49.264928, -123.168068)",3.0,C'est Mon Cafe,"3420W Broadway W, Vancouver BC V6R 2B3",
,,,,"(49.251867, -123.100717)",30th & Ontario,"(49.243375, -123.104978)",9.0,Hayan Mug,"3702 Main St, Vancouver BC V5V 3N7",
,,,,"(49.284167, -123.070117)",Lakewood & Triumph,"(49.283968, -123.061615)",6.0,The Narcissus,"1701 Powell St (Commercial Drive), Vancouver BC V5L 5C9",
,,,,"(49.263663, -123.112021)",13th & Cambie,"(49.259579, -123.114769)",1.0,Jammer Cafe Motors Inc,"350 8th Ave W, Vancouver BC",
,,,,"(49.249141, -123.155056)",Arbutus & Nanton,"(49.247854, -123.153422)",13.0,Starbucks,"2101 Lahb Ave (at Arbutus Street), Vancouver BC V6L 0B9",6.8
,,,,"(49.259164, -123.100851)",14th & Fraser,"(49.257939, -123.089531)",2.0,Lucky's Doughnuts,"2902 Main St, Vancouver BC V5T 3G3",
,,,,"(49.262614, -123.069508)",15th & Victoria (Trout Lake),"(49.256857, -123.065646)",13.0,Blenz Coffee,"2470 Commercial Dr (at E Broadway), Vancouver BC V5N 4B9",4.9
,,,,"(49.283427, -123.116383)",Robson & Hornby,"(49.282758, -123.122092)",23.0,Cultured Coffee & Tea,"678 Dunsmuir St (in Granville SkyTrain Station), Vancouver BC V6B 1N3",
,,,,"(49.286212, -123.126923)",Cardero & Robson,"(49.289255, -123.132677)",7.0,Blenz Coffee Robson - Bute,"1201 Robson St, Vancouver BC V6E 1C2",
,,,,"(49.259916, -123.100752)",1st & Scotia,"(49.2685027, -123.0975014)",10.0,Roasting Time,"2818 Main St, Vancouver BC V5T 0C1",
,,,,"(49.259164, -123.100851)",10th & Fraser,"(49.26151, -123.089413)",4.0,Lucky's Doughnuts,"2902 Main St, Vancouver BC V5T 3G3",
,,,,"(49.259164, -123.100851)",Ontario & 5th,"(49.266724, -123.104824)",9.0,Lucky's Doughnuts,"2902 Main St, Vancouver BC V5T 3G3",
,,,,"(49.249021, -123.126262)",Heather & 16th,"(49.256845, -123.120071)",7.0,City One Cafe,"954 King Edward Ave W, Vancouver BC V5Z 2E2",
,,,,"(49.275691, -123.121158)",Richards & Smithe,"(49.279259, -123.119145)",6.0,Analog Coffee,"338 Helmcken St (Hamilton), Vancouver BC V6B 6C5",
,,,,"(49.273493, -123.122349)",Robson & Beatty,"(49.277773, -123.114237)",18.0,Fuse Pan Asian Cafe,"181 Roundhouse Mews, Vancouver BC V6Z 2W3",
,,,,"(49.278423, -123.114982)",Maple Tree Square,"(49.283482, -123.103738)",16.0,Waves Coffee House,"211 Robson St (at Cambie St), Vancouver BC V6B 0E7",5.8
,,,,"(49.259164, -123.100851)",22nd & Main,"(49.25094, -123.101306)",3.0,Lucky's Doughnuts,"2902 Main St, Vancouver BC V5T 3G3",
,,,,"(49.267528, -123.106835)",Carrall & Seawall,"(49.276294, -123.106534)",13.0,Laura's Coffee Shop,"1945 Manitoba St (at 4th Ave.), Vancouver BC V5Y 3A1",
,,,,"(49.275687, -123.077918)",Charles & Woodland,"(49.2731, -123.0732)",10.0,Roaster Central,"1015 Clark Dr, Vancouver BC V5L 3K1",
,,,,"(49.263663, -123.112021)",1st & Manitoba,"(49.27023, -123.10651)",2.0,Jammer Cafe Motors Inc,"350 8th Ave W, Vancouver BC",
,,,,"(49.257457, -123.093325)",St Catherines & 7th,"(49.264466, -123.085183)",10.0,Tigers Drink House,"505E 15th Ave E (at St. George St), Vancouver BC V5T 4S4",
,,,,"(49.278368, -123.075549)",Triumph & Victoria,"(49.283986, -123.065264)",9.0,Coho Coffee,"1370 E Georgia St, Vancouver BC V5L 2A8",
,,,,"(49.259164, -123.100851)",18th & Main,"(49.254667, -123.101389)",7.0,Lucky's Doughnuts,"2902 Main St, Vancouver BC V5T 3G3",
,,,,"(49.253083, -123.08979)",St Catherines & 10th,"(49.261353, -123.085333)",2.0,Artisan Tea Bar,"3578 Fraser St, Vancouver BC V5V 4C6",
,,,,"(49.27957, -123.107779)",Nelson & Richards,"(49.277844, -123.120942)",10.0,Blenz Coffee,"603 Abbott St (at Keefer), Vancouver BC V6B 0J4",5.6
,,,,"(49.267985, -123.154157)",Arbutus & 10th,"(49.262835, -123.152626)",0.0,Forty Ninth Parallel,"2152 4th Ave W, Vancouver BC V6K 1N6",
,,,,"(49.286212, -123.126923)",Comox & Denman,"(49.288444, -123.139203)",3.0,Blenz Coffee Robson - Bute,"1201 Robson St, Vancouver BC V6E 1C2",
,,,,"(49.25248, -123.101174)",Prince Edward & 14th,"(49.258352, -123.096337)",7.0,Cultivate Tea,"2280 Main St, Vancouver BC",
,,,,"(49.280346, -123.103545)",Alexander & Railway,"(49.283992, -123.091206)",9.0,Mr. Coffee,"39 Pender St E (btwn Carrall & Columbia St), Vancouver BC V6A 1S9",
,,,,"(49.290052, -123.130334)",Chilco & Beach,"(49.28972, -123.144028)",5.0,Daily Grind Cafe,"1500 Georgia St W (Nicola), Vancouver BC V6G 2Z6",
,,,,"(49.287524, -123.116813)",Richards & Cordova,"(49.284554, -123.111031)",9.0,Cafe Taza,"355 Burrard St (Hastings), Vancouver BC V6C 2G6",
,,,,"(49.267575, -123.252382)",Agronomy & East Mall,"(49.2617360647494, -123.246483808594)",9.0,Ike's Café,"1961 East Mall, Vancouver BC V6T 1Z1",5.0
,,,,"(49.267575, -123.252382)",Orchard Commons,"(49.259999, -123.250902)",1.0,Ike's Café,"1961 East Mall, Vancouver BC V6T 1Z1",5.0
,,,,"(49.267985, -123.154157)",Yew & Broadway,"(49.263523, -123.155267)",3.0,Forty Ninth Parallel,"2152 4th Ave W, Vancouver BC V6K 1N6",
,,,,"(49.253925, -123.067799)",Woodland & 10th,"(49.261263, -123.073707)",2.0,Chance Cafe,"3424 Commercial St (Victoria Diversion), Vancouver BC V5N 4E9",
,,,,"(49.263663, -123.112021)",Ontario & 16th,"(49.256825, -123.105234)",2.0,Jammer Cafe Motors Inc,"350 8th Ave W, Vancouver BC",
,,,,"(49.263448, -123.119627)",14th & Alder,"(49.258819, -123.131317)",4.0,Blenz Coffee,"695 Broadway W (at Heather St.), Vancouver BC V5Z 1G6",5.3
,,,,"(49.269427, -123.138548)",Chestnut & McNicoll,"(49.275938, -123.145939)",4.0,Tru Cafe,"1500 2nd Ave W, Vancouver BC V6J 1H2",
,,,,"(49.268615, -123.170754)",Dunbar & 6th,"(49.266636, -123.183661)",12.0,Artistry Coffee Shop,"2959 4th Ave W, Vancouver BC V6K 1R3",
,,,,"(49.290839, -123.127481)",Stanley Park - Vancouver Aquarium,"(49.299292, -123.130281)",5.0,Blue Edge Cafe,"510 Nicola St, Vancouver BC V6G 3J7",5.5
,,,,"(49.282058, -123.118456)",Yaletown-Roundhouse Station,"(49.274566, -123.121817)",9.0,Starbucks,"720 Granville St, Vancouver BC V6Z 1E4",
,,,,"(49.281153, -123.132656)",Smithe & Burrard,"(49.282503, -123.124697)",7.0,Trees Cheesecake & Organic Coffee,"1160 Davie St, Vancouver BC V6E 1N1",
,,,,"(49.281285, -123.115794)",Abbott & Cordova,"(49.282759, -123.106955)",11.0,Blenz Coffee,"495 Georgia St W (at Richards St), Vancouver BC V6B 1B3",5.4
,,,,"(49.263597, -123.205023)",Sasamat & 10th,"(49.264019, -123.209176)",4.0,Little Umbrella Coffee Shop,"4372 10th Ave W, Vancouver BC V6R 2H7",
,,,,"(49.267985, -123.154157)",Vine & 4th,"(49.268339, -123.157443)",2.0,Forty Ninth Parallel,"2152 4th Ave W, Vancouver BC V6K 1N6",
,,,,"(49.263663, -123.112021)",10th & Ontario,"(49.262062, -123.104656)",1.0,Jammer Cafe Motors Inc,"350 8th Ave W, Vancouver BC",
,,,,"(49.267985, -123.154157)",Pine & 10th,"(49.262822, -123.14338)",3.0,Forty Ninth Parallel,"2152 4th Ave W, Vancouver BC V6K 1N6",
,,,,"(49.264138, -123.18018)",Wallace & 4th,"(49.268974, -123.190701)",2.0,C'est Mon Cafe,"3420W Broadway W, Vancouver BC V6R 2B3",
,,,,"(49.27722, -123.126642)",Pacific & Richards,"(49.273663, -123.127075)",4.0,Blenz Coffee Granville - Davie,"700 Davie St, Vancouver BC V6Z 1M6",
,,,,"(49.260643, -123.124172)",7th &  Alder,"(49.265198, -123.131043)",0.0,Cafe Ami,"899 12th Ave W, Vancouver BC V5Z 1M9",5.0
,,,,"(49.285624, -123.116083)",Canada Place,"(49.287214, -123.11287)",15.0,Murchie's Tea & Coffee  Ltd,"825W Pender St W (btwn Hornby & Howe), Vancouver BC V6C 1K6",5.5
,,,,"(49.249021, -123.126262)",Heather & 18th,"(49.255034, -123.120226)",6.0,City One Cafe,"954 King Edward Ave W, Vancouver BC V5Z 2E2",
,,,,"(49.263421, -123.115731)",14th & Oak,"(49.258761, -123.127071)",3.0,Blenz Coffee,"521W Broadway W (at Cambie St), Vancouver BC V5Z 1E6",5.4
,,,,"(49.284035, -123.120166)",Bute & Comox,"(49.283343, -123.131099)",13.0,Honey's Buns,"925 Georgia St W (Hornby), Vancouver BC V6C 3L2",
,,,,"(49.278867, -123.125241)",Comox & Broughton,"(49.285253, -123.134356)",4.0,Java Express,"1090 Howe St (Helmcken), Vancouver BC V6Z 1P5",
,,,,"(49.280346, -123.103545)",Station & Terminal,"(49.272172, -123.097978)",6.0,Mr. Coffee,"39 Pender St E (btwn Carrall & Columbia St), Vancouver BC V6A 1S9",
,,,,"(49.280346, -123.103545)",Stanley Park - Third Beach Parking Lot,"(49.302577, -123.155616)",20.0,Mr. Coffee,"39 Pender St E (btwn Carrall & Columbia St), Vancouver BC V6A 1S9",
,,,,"(49.273221, -123.069352)",Woodland & 4th,"(49.266751, -123.073501)",3.0,Turk's Coffee Exchange,"1276 Commercial Dr, Vancouver BC V5L 3X4",
,,,,"(49.263663, -123.112021)",8th & Ash,"(49.264215, -123.117772)",6.0,Jammer Cafe Motors Inc,"350 8th Ave W, Vancouver BC",
,,,,"(49.282058, -123.118456)",Burrard & Drake,"(49.27808, -123.130557)",15.0,Starbucks,"720 Granville St, Vancouver BC V6Z 1E4",
,,,,"(49.259164, -123.100851)",10th & Kingsway,"(49.261973, -123.09725)",8.0,Lucky's Doughnuts,"2902 Main St, Vancouver BC V5T 3G3",
,,,,"(49.269638, -123.132483)",10th & Oak,"(49.262255, -123.126217)",6.0,Origins Coffee Co LTD,"1245 Cartwright St, Vancouver BC V6H 4B7",
,,,,"(49.275687, -123.077918)",Hawks & Union,"(49.277333, -123.087359)",7.0,Roaster Central,"1015 Clark Dr, Vancouver BC V5L 3K1",
,,,,"(49.282058, -123.118456)",Marinaside & Cooperage,"(49.273833, -123.114373)",4.0,Starbucks,"720 Granville St, Vancouver BC V6Z 1E4",
,,,,"(49.28072, -123.126454)",Alberni & Jervis,"(49.28763, -123.127245)",14.0,Beyond Coffee,"1015 Burrard St (at Century Plaza Hotel Lobby), Vancouver BC V6Z 1Y5",5.8
,,,,"(49.267985, -123.154157)",7th & Arbutus,"(49.265605, -123.152566)",9.0,Forty Ninth Parallel,"2152 4th Ave W, Vancouver BC V6K 1N6",
,,,,"(49.263663, -123.112021)",14th & Ontario,"(49.25849, -123.104799)",1.0,Jammer Cafe Motors Inc,"350 8th Ave W, Vancouver BC",
,,,,"(49.249021, -123.126262)",King Edward & Cambie,"(49.249184, -123.116141)",3.0,City One Cafe,"954 King Edward Ave W, Vancouver BC V5Z 2E2",
,,,,"(49.267985, -123.154157)",1st & Fir,"(49.270783, -123.141564)",5.0,Forty Ninth Parallel,"2152 4th Ave W, Vancouver BC V6K 1N6",
,,,,"(49.266106, -123.152618)",Arbutus & 16th,"(49.257654, -123.153212)",3.0,Arbutus Coffee & Real Food Market,"2200 Arbutus St, Vancouver BC V6J 3Y1",
,,,,"(49.261299, -123.249405)",War Memorial Gym,"(49.2665793, -123.2485487)",1.0,Reboot Cafe,"2366 Main Mall (ICICS/CS Building), Vancouver BC V6T 1Z4",
,,,,"(49.249021, -123.126262)",28th & Willow,"(49.246243, -123.124373)",8.0,City One Cafe,"954 King Edward Ave W, Vancouver BC V5Z 2E2",
,,,,"(49.267985, -123.154157)",Arbutus Greenway & Fir,"(49.266774, -123.141135)",9.0,Forty Ninth Parallel,"2152 4th Ave W, Vancouver BC V6K 1N6",
,,,,"(49.267418, -123.25018)",West Mall Swing Space Building,"(49.263073, -123.254307)",19.0,Starbucks,"6138 Student Union Blvd (in Pacific Spirit Pl.), Vancouver BC V6T 1Z1",5.1
,,,,"(49.273221, -123.069352)",McLean & Pender,"(49.280427, -123.074082)",8.0,Turk's Coffee Exchange,"1276 Commercial Dr, Vancouver BC V5L 3X4",
,,,,"(49.284035, -123.120166)",Bute & Barclay,"(49.284893, -123.128685)",24.0,Honey's Buns,"925 Georgia St W (Hornby), Vancouver BC V6C 3L2",
,,,,"(49.267985, -123.154157)",Balsam & Cornwall,"(49.273011, -123.159663)",0.0,Forty Ninth Parallel,"2152 4th Ave W, Vancouver BC V6K 1N6",
,,,,"(49.284616, -123.118269)",Hastings & Broughton,"(49.290112, -123.127062)",21.0,888 Caffe Express,"888 Dunsmuir St, Vancouver BC V6C 3K4",
,,,,"(49.287524, -123.116813)",Seymour & Cordova,"(49.28512, -123.11242)",16.0,Cafe Taza,"355 Burrard St (Hastings), Vancouver BC V6C 2G6",
,,,,"(49.263448, -123.119627)",Alder & 11th,"(49.261742, -123.13148)",2.0,Blenz Coffee,"695 Broadway W (at Heather St.), Vancouver BC V5Z 1G6",5.3
,,,,"(49.259164, -123.100851)",10th & Columbia,"(49.262206, -123.109091)",5.0,Lucky's Doughnuts,"2902 Main St, Vancouver BC V5T 3G3",
,,,,"(49.263663, -123.112021)",Heather & 14th,"(49.259183, -123.120126)",3.0,Jammer Cafe Motors Inc,"350 8th Ave W, Vancouver BC",
,,,,"(49.251258, -123.077794)",Commercial & 20th,"(49.252656, -123.067965)",2.0,Cedar Cottage Coffee House,"1303 Kingsway (at Clark Dr.), Vancouver BC V5V 3E3",
,,,,"(49.267985, -123.154157)",Kitsilano Beach Park,"(49.273355, -123.154493)",17.0,Forty Ninth Parallel,"2152 4th Ave W, Vancouver BC V6K 1N6",
,,,,"(49.27722, -123.126642)",Rolston & Granville,"(49.274232, -123.129998)",4.0,Blenz Coffee Granville - Davie,"700 Davie St, Vancouver BC V6Z 1M6",
,,,,"(49.283858, -123.111876)",Cordova & Bute,"(49.289124, -123.12196)",7.0,Waves Coffee House,"492 Hastings St W (at Richards St), Vancouver BC V6B 1L1",5.7
,,,,"(49.259164, -123.100851)",12th & Yukon (City Hall),"(49.260599, -123.113504)",4.0,Lucky's Doughnuts,"2902 Main St, Vancouver BC V5T 3G3",
,,,,"(49.26411, -123.186096)",Blenheim & 4th,"(49.268837, -123.177633)",6.0,Good Earth Coffee House,"2505 Alma St (Broadway), Vancouver BC V6R 3R8",
,,,,"(49.263663, -123.112021)",Wylie & 2nd,"(49.267725, -123.11311)",5.0,Jammer Cafe Motors Inc,"350 8th Ave W, Vancouver BC",
,,,,"(49.285465, -123.120126)",Thurlow & Pendrell,"(49.280881, -123.130672)",9.0,Nami Vietnamese,"885 W Georgia St, Vancouver BC V6C 2G2",
,,,,"(49.263663, -123.112021)",14th & Cambie,"(49.258763, -123.115392)",3.0,Jammer Cafe Motors Inc,"350 8th Ave W, Vancouver BC",
,,,,"(49.284678, -123.122087)",Granville & Georgia,"(49.282409, -123.118541)",15.0,cafeclub.ca,"1018 W Georgia St, Vancouver BC V6E 2Y2",
,,,,"(49.275687, -123.077918)",Grant & Commercial,"(49.271377, -123.069416)",3.0,Roaster Central,"1015 Clark Dr, Vancouver BC V5L 3K1",
,,,,"(49.259164, -123.100851)",8th & Ontario,"(49.263837, -123.105173)",8.0,Lucky's Doughnuts,"2902 Main St, Vancouver BC V5T 3G3",
,,,,"(49.279123, -123.116016)",Hornby & Nelson,"(49.28062, -123.12482)",12.0,Lovelarte,"345 Robson St, Vancouver BC V6B 6B3",
,,,,"(49.281683, -123.124752)",šxʷƛ̓ənəq Xwtl'e7énḵ Square - Vancouver Art Gallery,"(49.283227, -123.120523)",8.0,Trees Organic Coffee,"930 Burrard St, Vancouver BC V6Z 3G5",
,,,,"(49.279423, -123.123018)",Dunsmuir & Beatty,"(49.279764, -123.110154)",17.0,Blenz Coffee,"999 Granville St (at Nelson St.), Vancouver BC V6Z 1L3",5.8
,,,,"(49.281683, -123.124752)",Robson & Granville,"(49.281506, -123.120101)",12.0,Trees Organic Coffee,"930 Burrard St, Vancouver BC V6Z 3G5",
,,,,"(49.273221, -123.069352)",4th & Commercial,"(49.266969, -123.069936)",4.0,Turk's Coffee Exchange,"1276 Commercial Dr, Vancouver BC V5L 3X4",
,,,,"(49.263663, -123.112021)",8th & Scotia,"(49.263635, -123.099236)",1.0,Jammer Cafe Motors Inc,"350 8th Ave W, Vancouver BC",
,,,,"(49.283427, -123.116383)",Homer & Robson (Vancouver Public Library),"(49.279739, -123.116251)",9.0,Cultured Coffee & Tea,"678 Dunsmuir St (in Granville SkyTrain Station), Vancouver BC V6B 1N3",
,,,,"(49.263171, -123.126091)",7th & Granville,"(49.2653, -123.13811)",3.0,Dalina,"992 West Broadway (Oak Street), Vancouver BC V5Z 1K7",
,,,,"(49.286212, -123.126923)",Harwood & Bute,"(49.28026, -123.135244)",11.0,Blenz Coffee Robson - Bute,"1201 Robson St, Vancouver BC V6E 1C2",
,,,,"(49.280213, -123.107023)",Creekside Park North,"(49.2756, -123.102661)",11.0,Bubble King Tea House,"88 Pender St W, Vancouver BC V6B 6N9",
,,,,"(49.284678, -123.122087)",Nicola & Robson,"(49.2885056, -123.1312375)",4.0,cafeclub.ca,"1018 W Georgia St, Vancouver BC V6E 2Y2",
,,,,"(49.269885, -123.069313)",10th & Commercial,"(49.261403, -123.070102)",7.0,Liberty Commercial Drive,"1670 Commercial Dr (1st Avenue), Vancouver BC",
,,,,"(49.263663, -123.112021)",10th & Cambie,"(49.262487, -123.114397)",22.0,Jammer Cafe Motors Inc,"350 8th Ave W, Vancouver BC",
,,,,"(49.267234, -123.090505)",Quebec & 1st,"(49.27033, -123.10275)",9.0,Momento Coffee House,"577 Great Northern Way, Vancouver BC V5T 1E1",
,,,,"(49.284167, -123.070117)",Lakewood & Oxford,"(49.285575, -123.061575)",5.0,The Narcissus,"1701 Powell St (Commercial Drive), Vancouver BC V5L 5C9",
,,,,"(49.261311, -123.10079)",Carolina & Great Northern Way,"(49.267266, -123.090786)",12.0,Novella Coffee Bar,"2650 Main St (E 11th Ave), Vancouver BC V5T 3E6",
,,,,"(49.263663, -123.112021)",Columbia & 5th,"(49.266476, -123.109389)",13.0,Jammer Cafe Motors Inc,"350 8th Ave W, Vancouver BC",
,,,,"(49.23503, -123.161628)",East Blvd & 37th,"(49.238105, -123.154966)",9.0,Rose House Vancouver,"5687 Balsam St (W 41st Av. at Balsam St.), Vancouver BC V6M 4B5",
,,,,"(49.267985, -123.154157)",Trafalgar & Cornwall,"(49.272969, -123.164325)",8.0,Forty Ninth Parallel,"2152 4th Ave W, Vancouver BC V6K 1N6",
,,,,"(49.267985, -123.154157)",5th & Arbutus,"(49.267222, -123.153157)",1.0,Forty Ninth Parallel,"2152 4th Ave W, Vancouver BC V6K 1N6",
,,,,"(49.289558, -123.132807)",Stanley Park - Information Booth,"(49.297933, -123.130758)",1.0,Market Veranda,"1610 Robson St, Vancouver BC V6G 1C7",
,,,,"(49.25248, -123.101174)",14th & Main,"(49.258425, -123.100792)",1.0,Cultivate Tea,"2280 Main St, Vancouver BC",
,,,,"(49.280213, -123.107023)",Georgia & Main,"(49.278529, -123.100017)",6.0,Bubble King Tea House,"88 Pender St W, Vancouver BC V6B 6N9",
,,,,"(49.264401, -123.180121)",Alma & Point Grey,"(49.27247, -123.185643)",6.0,Storm City Coffee,"3403 Broadway W, Vancouver BC V6R 2B4",
,,,,"(49.259164, -123.100851)",20th & Main,"(49.252691, -123.101289)",5.0,Lucky's Doughnuts,"2902 Main St, Vancouver BC V5T 3G3",
,,,,"(49.284616, -123.118269)",Nelson & Mainland,"(49.276436, -123.11877)",17.0,888 Caffe Express,"888 Dunsmuir St, Vancouver BC V6C 3K4",
,,,,"(49.263843, -123.170506)",Point Grey & Blenheim,"(49.271471, -123.17731)",7.0,JJ Bean,"2902 Broadway W (at MacKenzie St.), Vancouver BC V6K 2G8",
,,,,"(49.263663, -123.112021)",Yukon & 6th,"(49.265939, -123.1129)",9.0,Jammer Cafe Motors Inc,"350 8th Ave W, Vancouver BC",
,,,,"(49.267985, -123.154157)",Burrard & 7th,"(49.265336, -123.145823)",1.0,Forty Ninth Parallel,"2152 4th Ave W, Vancouver BC V6K 1N6",
,,,,"(49.256895, -123.126934)",14th & Granville,"(49.25894, -123.139272)",2.0,Whitewood Coffee Ltd,"3208 Oak St, Vancouver BC V6H 2L3",
,,,,"(49.280849, -123.057015)",Wall & Eton,"(49.287464, -123.060771)",8.0,Steam Tea House,"2342 Hastings St E (E Hastings St & Nanaimo St), Vancouver BC V5L 1V5",
,,,,"(49.289558, -123.132807)",Beach & Cardero,"(49.283298, -123.142288)",11.0,Market Veranda,"1610 Robson St, Vancouver BC V6G 1C7",
,,,,"(49.267985, -123.154157)",Cypress & 4th,"(49.268269, -123.147885)",4.0,Forty Ninth Parallel,"2152 4th Ave W, Vancouver BC V6K 1N6",
,,,,"(49.290839, -123.127481)",Bute & Robson,"(49.285836, -123.127265)",0.0,Blue Edge Cafe,"510 Nicola St, Vancouver BC V6G 3J7",5.5
,,,,"(49.281285, -123.115794)",Richards & Robson,"(49.280216, -123.117639)",9.0,Blenz Coffee,"495 Georgia St W (at Richards St), Vancouver BC V6B 1B3",5.4
,,,,"(49.273221, -123.069352)",Glen & Union,"(49.277469, -123.081315)",8.0,Turk's Coffee Exchange,"1276 Commercial Dr, Vancouver BC V5L 3X4",
,,,,"(49.263663, -123.112021)",8th & Yukon,"(49.263962, -123.112621)",13.0,Jammer Cafe Motors Inc,"350 8th Ave W, Vancouver BC",
,,,,"(49.267985, -123.154157)",1st & Chestnut,"(49.270721, -123.146175)",13.0,Forty Ninth Parallel,"2152 4th Ave W, Vancouver BC V6K 1N6",
,,,,"(49.263663, -123.112021)",10th & Main,"(49.262141, -123.101961)",3.0,Jammer Cafe Motors Inc,"350 8th Ave W, Vancouver BC",
,,,,"(49.283427, -123.116383)",Georgia & Homer,"(49.280787, -123.115271)",14.0,Cultured Coffee & Tea,"678 Dunsmuir St (in Granville SkyTrain Station), Vancouver BC V6B 1N3",
,,,,"(49.267985, -123.154157)",York & Yew,"(49.271741, -123.155421)",6.0,Forty Ninth Parallel,"2152 4th Ave W, Vancouver BC V6K 1N6",
,,,,"(49.280213, -123.107023)",Ontario & Seawall,"(49.271721, -123.104207)",9.0,Bubble King Tea House,"88 Pender St W, Vancouver BC V6B 6N9",
,,,,"(49.270961, -123.140706)",10th & Granville,"(49.262598, -123.138921)",2.0,M R Coffee Ltd,"1612 1st Ave W, Vancouver BC V6J 1G1",
,,,,"(49.262614, -123.069508)",15th & Knight,"(49.256496, -123.075426)",6.0,Blenz Coffee,"2470 Commercial Dr (at E Broadway), Vancouver BC V5N 4B9",4.9
,,,,"(49.25248, -123.101174)",Ontario & 23rd,"(49.249722, -123.104991)",7.0,Cultivate Tea,"2280 Main St, Vancouver BC",
,,,,"(49.263843, -123.170506)",Dunbar & Broadway,"(49.264579, -123.18373)",20.0,JJ Bean,"2902 Broadway W (at MacKenzie St.), Vancouver BC V6K 2G8",
,,,,"(49.284445, -123.110223)",Carrall & Hastings,"(49.28117, -123.104419)",10.0,Cafe Monaco,"356 Water St, Vancouver BC V6B 1B6",
,,,,"(49.269885, -123.069313)",8th & Commercial,"(49.263242, -123.070521)",2.0,Liberty Commercial Drive,"1670 Commercial Dr (1st Avenue), Vancouver BC",
,,,,"(49.260643, -123.124172)",Charleson Park,"(49.267628, -123.127698)",7.0,Cafe Ami,"899 12th Ave W, Vancouver BC V5Z 1M9",5.0
,,,,"(49.27722, -123.126642)",Beach & Hornby,"(49.275295, -123.132585)",8.0,Blenz Coffee Granville - Davie,"700 Davie St, Vancouver BC V6Z 1M6",
,,,,"(49.269687, -123.095905)",Princess & Union,"(49.277615, -123.091654)",2.0,Cookies of Course,"401 Industrial Ave (at Station St), Vancouver BC V6A 2P8",
,,,,"(49.263663, -123.112021)",3rd & Quebec,"(49.268216, -123.103168)",16.0,Jammer Cafe Motors Inc,"350 8th Ave W, Vancouver BC",
,,,,"(49.288734, -123.139307)",Stanley Park - Second Beach South,"(49.294318, -123.148808)",5.0,Yaas Café & Gelateria,"1040 Denman St (at Comox St), Vancouver BC V6G 2M5",
,,,,"(49.259164, -123.100851)",6th & Carolina,"(49.265213, -123.090785)",8.0,Lucky's Doughnuts,"2902 Main St, Vancouver BC V5T 3G3",
,,,,"(49.267575, -123.252382)",UBC Bookstore,"(49.265207, -123.250139)",8.0,Ike's Café,"1961 East Mall, Vancouver BC V6T 1Z1",5.0
,,,,"(49.26411, -123.186096)",Balaclava & Broadway,"(49.264483, -123.173926)",5.0,Good Earth Coffee House,"2505 Alma St (Broadway), Vancouver BC V6R 3R8",
,,,,"(49.273153, -123.100256)",Expo & Carrall,"(49.278004, -123.105664)",10.0,Cappuccino Bar,"Terminal Ave (at Main St Skytrain), Vancouver BC",
,,,,"(49.27722, -123.126642)",Beach & Seymour,"(49.273568, -123.129935)",8.0,Blenz Coffee Granville - Davie,"700 Davie St, Vancouver BC V6Z 1M6",
,,,,"(49.25248, -123.101174)",27th & Main,"(49.247204, -123.101549)",7.0,Cultivate Tea,"2280 Main St, Vancouver BC",
,,,,"(49.25248, -123.101174)",Stanley Park - Second Beach North,"(49.29534, -123.150433)",0.0,Cultivate Tea,"2280 Main St, Vancouver BC",
,,,,"(49.262614, -123.069508)",Keith & 6th,"(49.265005, -123.079481)",11.0,Blenz Coffee,"2470 Commercial Dr (at E Broadway), Vancouver BC V5N 4B9",4.9
,,,,"(49.264157, -123.184722)",Jericho Beach,"(49.271221, -123.191133)",7.0,Nebur-King Coffee Group,"3646W Broadway W (at Alma St), Vancouver BC V6R 2B7",
,,,,"(49.263843, -123.170506)",Point Grey & Bayswater,"(49.271044, -123.170661)",12.0,JJ Bean,"2902 Broadway W (at MacKenzie St.), Vancouver BC V6K 2G8",
,,,,"(49.272758, -123.069718)",7th & Woodland,"(49.264251, -123.073853)",2.0,Abruzzo Cappuccino Bar,"1321 Commercial Dr (Charles), Vancouver BC V5L 3X5",
,,,,"(49.27722, -123.126642)",Aquatic Centre,"(49.27821, -123.136972)",12.0,Blenz Coffee Granville - Davie,"700 Davie St, Vancouver BC V6Z 1M6",
,,,,"(49.290839, -123.127481)",Georgia & Thurlow,"(49.285953, -123.124066)",11.0,Blue Edge Cafe,"510 Nicola St, Vancouver BC V6G 3J7",5.5
,,,,"(49.283427, -123.116383)",Cordova & Granville,"(49.2856698, -123.1125432)",14.0,Cultured Coffee & Tea,"678 Dunsmuir St (in Granville SkyTrain Station), Vancouver BC V6B 1N3",
,,,,"(49.269638, -123.132483)",Vanier Park,"(49.275717, -123.142564)",13.0,Origins Coffee Co LTD,"1245 Cartwright St, Vancouver BC V6H 4B7",
,,,,"(49.267985, -123.154157)",Trafalgar & Broadway,"(49.264326, -123.164725)",5.0,Forty Ninth Parallel,"2152 4th Ave W, Vancouver BC V6K 1N6",
,,,,"(49.275687, -123.077918)",Napier & Commercial,"(49.274881, -123.069323)",3.0,Roaster Central,"1015 Clark Dr, Vancouver BC V5L 3K1",
,,,,"(49.263663, -123.112021)",7th & Laurel,"(49.265071, -123.123864)",1.0,Jammer Cafe Motors Inc,"350 8th Ave W, Vancouver BC",
,,,,"(49.280213, -123.107023)",Science World,"(49.273691, -123.102232)",7.0,Bubble King Tea House,"88 Pender St W, Vancouver BC V6B 6N9",
,,,,"(49.273221, -123.069352)",Pender & Victoria,"(49.280197, -123.065859)",2.0,Turk's Coffee Exchange,"1276 Commercial Dr, Vancouver BC V5L 3X4",
,,,,"(49.263764, -123.138955)",Cypress & 16th,"(49.25741, -123.148531)",4.0,Murchie's Fine Tea,"1501 Broadway W (Granville Street), Vancouver BC V6J 4Z6",
,,,,"(49.263663, -123.112021)",Spyglass & Seawall,"(49.270877, -123.115103)",8.0,Jammer Cafe Motors Inc,"350 8th Ave W, Vancouver BC",
,,,,"(49.275687, -123.077918)",Keefer & Hawks,"(49.279235, -123.087528)",6.0,Roaster Central,"1015 Clark Dr, Vancouver BC V5L 3K1",
,,,,"(49.249021, -123.126262)",29th & Cambie,"(49.245135, -123.116098)",7.0,City One Cafe,"954 King Edward Ave W, Vancouver BC V5Z 2E2",
,,,,"(49.26987, -123.069474)",Victoria & 10th,"(49.261188, -123.066009)",0.0,Caffe Napoli,"1670 Commercial Dr (1st avenue east), Vancouver BC V5L 3Y4",
,,,,"(49.275687, -123.077918)",Commercial & Adanac,"(49.277436, -123.070427)",7.0,Roaster Central,"1015 Clark Dr, Vancouver BC V5L 3K1",
,,,,"(49.25248, -123.101174)",Columbia & 14th,"(49.258902, -123.109596)",4.0,Cultivate Tea,"2280 Main St, Vancouver BC",
,,,,"(49.279423, -123.123018)",Dunsmuir & Richards,"(49.282214, -123.114101)",14.0,Blenz Coffee,"999 Granville St (at Nelson St.), Vancouver BC V6Z 1L3",5.8
,,,,"(49.275687, -123.077918)",Campbell & Hastings,"(49.280852, -123.084746)",4.0,Roaster Central,"1015 Clark Dr, Vancouver BC V5L 3K1",
,,,,"(49.284167, -123.070117)",Franklin & Nanaimo,"(49.282087, -123.056909)",8.0,The Narcissus,"1701 Powell St (Commercial Drive), Vancouver BC V5L 5C9",
,,,,"(49.275687, -123.077918)",Charles & Commercial,"(49.273103, -123.069892)",15.0,Roaster Central,"1015 Clark Dr, Vancouver BC V5L 3K1",
,,,,"(49.267575, -123.252382)",Strangway Building,"(49.2661087286495, -123.2456811408)",7.0,Ike's Café,"1961 East Mall, Vancouver BC V6T 1Z1",5.0
,,,,"(49.282058, -123.118456)",Beatty & Nelson,"(49.275679, -123.116963)",4.0,Starbucks,"720 Granville St, Vancouver BC V6Z 1E4",
,,,,"(49.27311, -123.203169)",Trimble & 8th,"(49.2658, -123.20596)",7.0,NSCS Discovery Cafe,"1515 Discovery St (Belmont Ave), Vancouver BC V6R 4K5",
,,,,"(49.27722, -123.126642)",David Lam Park,"(49.270905, -123.126006)",11.0,Blenz Coffee Granville - Davie,"700 Davie St, Vancouver BC V6Z 1M6",
,,,,"(49.267985, -123.154157)",Burrard & 4th,"(49.267859, -123.145782)",2.0,Forty Ninth Parallel,"2152 4th Ave W, Vancouver BC V6K 1N6",
,,,,"(49.267985, -123.154157)",Cypress & Cornwall,"(49.272827, -123.147744)",10.0,Forty Ninth Parallel,"2152 4th Ave W, Vancouver BC V6K 1N6",
,,,,"(49.281103, -123.104583)",Keefer & Princess,"(49.279369, -123.091241)",7.0,Aiyaohno Cafe,"425 Carrall St, Vancouver BC V6B 6E3",
,,,,"(49.290052, -123.130334)",Bidwell & Burnaby,"(49.28526, -123.141809)",13.0,Daily Grind Cafe,"1500 Georgia St W (Nicola), Vancouver BC V6G 2Z6",
,,,,"(49.25248, -123.101174)",11th & Kingsway,"(49.261122, -123.097571)",0.0,Cultivate Tea,"2280 Main St, Vancouver BC",
,,,,"(49.287072, -123.124806)",Pender & Burrard,"(49.287097, -123.118551)",20.0,Juan de Fuca Coffee Co,"1185 Georgia St W (at Bute St), Vancouver BC V6E 4E6",
,,,,"(49.263663, -123.112021)",Columbia & 1st,"(49.269969, -123.109623)",0.0,Jammer Cafe Motors Inc,"350 8th Ave W, Vancouver BC",
,,,,"(49.290052, -123.130334)",Melville & Bute,"(49.287782, -123.12395)",14.0,Daily Grind Cafe,"1500 Georgia St W (Nicola), Vancouver BC V6G 2Z6",
,,,,"(49.276876, -123.13083)",Anderson & 2nd,"(49.269361, -123.13782)",4.0,Nebur-King Coffee,"1359 Hornby St (Pacific Ave), Vancouver BC V6Z 1W7",
,,,,"(49.263663, -123.112021)",5th & Main,"(49.266456, -123.100324)",13.0,Jammer Cafe Motors Inc,"350 8th Ave W, Vancouver BC",
,,,,"(49.280213, -123.107023)",Alexander & Dunlevy,"(49.284062, -123.095097)",13.0,Bubble King Tea House,"88 Pender St W, Vancouver BC V6B 6N9",
,,,,"(49.25248, -123.101174)",13th & St George,"(49.258817, -123.092797)",8.0,Cultivate Tea,"2280 Main St, Vancouver BC",
,,,,"(49.275687, -123.077918)",Commercial & Pandora,"(49.283236, -123.070443)",8.0,Roaster Central,"1015 Clark Dr, Vancouver BC V5L 3K1",
,,,,"(49.27265, -123.069953)",Grandview & Commercial,"(49.263746, -123.069892)",4.0,Toscani Coffee Bar,"1321 Commercial Dr, Vancouver BC V5L 3X5",
,,,,"(49.280346, -123.103545)",Expo & Smithe,"(49.276115, -123.114496)",9.0,Mr. Coffee,"39 Pender St E (btwn Carrall & Columbia St), Vancouver BC V6A 1S9",
,,,,"(49.263764, -123.138955)",Cypress & 14th,"(49.25919, -123.148268)",2.0,Murchie's Fine Tea,"1501 Broadway W (Granville Street), Vancouver BC V6J 4Z6",
,,,,"(49.26223, -123.245109)",Brock Commons,"(49.269172, -123.25279)",11.0,Caffe Perugia,"2350 Health Sciences Mall Life Ctr (Agronomy Rd), Vancouver BC V6T 1Z3",
,,,,"(49.286346, -123.127908)",Beach & Broughton,"(49.281301, -123.139108)",5.0,Little Cafe,"1258 Robson St, Vancouver BC V6E 1C1",5.5
,,,,"(49.25877, -123.138934)",Arbutus Greenway & 14th,"(49.258924, -123.152591)",10.0,Phoscao Cafe,"3007 Granville St, Vancouver BC V6H 3J9",5.4
,,,,"(49.280213, -123.107023)",Alexander & Main,"(49.284157, -123.099917)",17.0,Bubble King Tea House,"88 Pender St W, Vancouver BC V6B 6N9",
,,,,"(49.282058, -123.118456)",Hornby & Drake,"(49.277178, -123.13)",7.0,Starbucks,"720 Granville St, Vancouver BC V6Z 1E4",
,,,,"(49.264138, -123.18018)",Highbury & 8th,"(49.265442, -123.187738)",10.0,C'est Mon Cafe,"3420W Broadway W, Vancouver BC V6R 2B3",
,,,,"(49.267575, -123.252382)",Pharmaceutical Sciences,"(49.26262, -123.2431)",8.0,Ike's Café,"1961 East Mall, Vancouver BC V6T 1Z1",5.0
,,,,"(49.286212, -123.126923)",Haro & Denman,"(49.290587, -123.13625)",6.0,Blenz Coffee Robson - Bute,"1201 Robson St, Vancouver BC V6E 1C2",
,,,,"(49.262672, -123.092227)",Windsor & 14th,"(49.257985, -123.083366)",7.0,The Paper Crane,"531 Broadway E, Vancouver BC V5T 1X4",5.3
,,,,"(49.25248, -123.101174)",Prince Edward & 16th,"(49.256694, -123.096579)",7.0,Cultivate Tea,"2280 Main St, Vancouver BC",
,,,,"(49.286212, -123.126923)",Cardero & Davie,"(49.285512, -123.1384)",1.0,Blenz Coffee Robson - Bute,"1201 Robson St, Vancouver BC V6E 1C2",
,,,,"(49.263663, -123.112021)",Stamps Landing,"(49.26893, -123.11813)",5.0,Jammer Cafe Motors Inc,"350 8th Ave W, Vancouver BC",
,,,,"(49.282058, -123.118456)",Marinaside & Davie,"(49.273471, -123.118016)",10.0,Starbucks,"720 Granville St, Vancouver BC V6Z 1E4",
,,,,"(49.273221, -123.069352)",Adanac & McLean,"(49.277665, -123.073653)",7.0,Turk's Coffee Exchange,"1276 Commercial Dr, Vancouver BC V5L 3X4",
,,,,"(49.284035, -123.120166)",Bute & Davie,"(49.282055, -123.133045)",13.0,Honey's Buns,"925 Georgia St W (Hornby), Vancouver BC V6C 3L2",
,,,,"(49.273221, -123.069352)",Victoria & 4th,"(49.266725, -123.065925)",2.0,Turk's Coffee Exchange,"1276 Commercial Dr, Vancouver BC V5L 3X4",
,,,,"(49.249021, -123.126262)",Heather & 29th,"(49.245535, -123.120496)",10.0,City One Cafe,"954 King Edward Ave W, Vancouver BC V5Z 2E2",
,,,,"(49.267985, -123.154157)",McNicoll & Arbutus,"(49.276292, -123.150592)",8.0,Forty Ninth Parallel,"2152 4th Ave W, Vancouver BC V6K 1N6",
,,,,"(49.281153, -123.132656)",Jervis & Robson,"(49.28691, -123.128818)",7.0,Trees Cheesecake & Organic Coffee,"1160 Davie St, Vancouver BC V6E 1N1",
,,,,"(49.26223, -123.245109)",IK Barber Learning Centre,"(49.267561, -123.252261)",9.0,Caffe Perugia,"2350 Health Sciences Mall Life Ctr (Agronomy Rd), Vancouver BC V6T 1Z3",
,,,,"(49.27722, -123.126642)",Granville Island,"(49.27029, -123.135025)",21.0,Blenz Coffee Granville - Davie,"700 Davie St, Vancouver BC V6Z 1M6",
,,,,"(49.259164, -123.100851)",6th & Prince Edward,"(49.265242, -123.095577)",4.0,Lucky's Doughnuts,"2902 Main St, Vancouver BC V5T 3G3",
,,,,"(49.27722, -123.126642)",Broughton & Davie,"(49.283749, -123.136133)",4.0,Blenz Coffee Granville - Davie,"700 Davie St, Vancouver BC V6Z 1M6",
,,,,"(49.273221, -123.069352)",Adanac & Lakewood,"(49.27751, -123.061429)",1.0,Turk's Coffee Exchange,"1276 Commercial Dr, Vancouver BC V5L 3X4",
,,,,"(49.267985, -123.154157)",Cypress & 10th,"(49.262944, -123.148109)",7.0,Forty Ninth Parallel,"2152 4th Ave W, Vancouver BC V6K 1N6",
,,,,"(49.267418, -123.25018)",Thunderbird Parkade,"(49.261655, -123.241924)",4.0,Starbucks,"6138 Student Union Blvd (in Pacific Spirit Pl.), Vancouver BC V6T 1Z1",5.1
,,,,"(49.287524, -123.116813)",Burrard Station (Melville & Dunsmuir),"(49.285871, -123.12105)",12.0,Cafe Taza,"355 Burrard St (Hastings), Vancouver BC V6C 2G6",
,,,,"(49.249021, -123.126262)",22nd & Cambie,"(49.251358, -123.115637)",3.0,City One Cafe,"954 King Edward Ave W, Vancouver BC V5Z 2E2",
,,,,"(49.262614, -123.069508)",Glen & Broadway,"(49.262242, -123.081459)",7.0,Blenz Coffee,"2470 Commercial Dr (at E Broadway), Vancouver BC V5N 4B9",4.9
,,,,"(49.290839, -123.127481)",Stanley Park - Totem Poles,"(49.298657, -123.121176)",16.0,Blue Edge Cafe,"510 Nicola St, Vancouver BC V6G 3J7",5.5
,,,,"(49.281153, -123.132656)",Davie & Beach,"(49.287528, -123.142139)",20.0,Trees Cheesecake & Organic Coffee,"1160 Davie St, Vancouver BC V6E 1N1",
,,,,"(49.280213, -123.107023)",Pender & Gore,"(49.280284, -123.097052)",4.0,Bubble King Tea House,"88 Pender St W, Vancouver BC V6B 6N9",
,,,,"(49.280726, -123.131159)",Richards & Davie,"(49.275683, -123.124388)",5.0,Latin Square,"1105 Davie St (Thurlow Street), Vancouver BC",
,,,,"(49.273221, -123.069352)",Pender & Commercial,"(49.280332, -123.070068)",6.0,Turk's Coffee Exchange,"1276 Commercial Dr, Vancouver BC V5L 3X4",
,,,,"(49.260643, -123.124172)",18th & Cambie,"(49.254818, -123.114785)",1.0,Cafe Ami,"899 12th Ave W, Vancouver BC V5Z 1M9",5.0
,,,,"(49.275687, -123.077918)",2nd & Commercial,"(49.268616, -123.069908)",5.0,Roaster Central,"1015 Clark Dr, Vancouver BC V5L 3K1",
,,,,"(49.253982, -123.235073)",Wesbrook Village - Berton & Shrum,"(49.25478, -123.23621)",18.0,Blenz Coffee,"3381 Wesbrook Mall (at Gray Ave.), Vancouver BC V6S 0B1",6.9
,,,,"(49.290839, -123.127481)",Chilco & Robson,"(49.293257, -123.138563)",13.0,Blue Edge Cafe,"510 Nicola St, Vancouver BC V6G 3J7",5.5
,,,,"(49.283122, -123.110921)",Keefer & Columbia,"(49.279342, -123.101822)",8.0,VFS Cafe,"420 Homer St (Carrall), Vancouver BC",
,,,,"(49.283427, -123.116383)",Rogers Tower,"(49.288682, -123.11818)",7.0,Cultured Coffee & Tea,"678 Dunsmuir St (in Granville SkyTrain Station), Vancouver BC V6B 1N3",
,,,,"(49.275687, -123.077918)",Woodland & Graveley,"(49.270684, -123.073562)",4.0,Roaster Central,"1015 Clark Dr, Vancouver BC V5L 3K1",
,,,,"(49.286212, -123.126923)",Cardero & Bayshore,"(49.291597, -123.129158)",11.0,Blenz Coffee Robson - Bute,"1201 Robson St, Vancouver BC V6E 1C2",
,,,,"(49.286212, -123.126923)",Nelson & Denman,"(49.2890705989865, -123.138407369468)",4.0,Blenz Coffee Robson - Bute,"1201 Robson St, Vancouver BC V6E 1C2",
,,,,"(49.259164, -123.100851)",8th & Fraser,"(49.263382, -123.088837)",9.0,Lucky's Doughnuts,"2902 Main St, Vancouver BC V5T 3G3",
,,,,"(49.26411, -123.186096)",Balaclava & 6th,"(49.266924, -123.173849)",12.0,Good Earth Coffee House,"2505 Alma St (Broadway), Vancouver BC V6R 3R8",
,,,,"(49.280346, -123.103545)",Cambie & Water,"(49.284605, -123.108662)",27.0,Mr. Coffee,"39 Pender St E (btwn Carrall & Columbia St), Vancouver BC V6A 1S9",
,,,,"(49.279123, -123.116016)",Helmcken & Burrard,"(49.279938, -123.127478)",13.0,Lovelarte,"345 Robson St, Vancouver BC V6B 6B3",
,,,,"(49.283122, -123.110921)",Hornby & Pender,"(49.28602, -123.116624)",18.0,VFS Cafe,"420 Homer St (Carrall), Vancouver BC",
,,,,"(49.263663, -123.112021)",7th & Heather,"(49.265089, -123.119425)",2.0,Jammer Cafe Motors Inc,"350 8th Ave W, Vancouver BC",
,,,,"(49.280213, -123.107023)",Union & Dunlevy,"(49.277595, -123.09583)",7.0,Bubble King Tea House,"88 Pender St W, Vancouver BC V6B 6N9",
,,,,"(49.285465, -123.120126)",Richards & Helmcken,"(49.277141, -123.122589)",6.0,Nami Vietnamese,"885 W Georgia St, Vancouver BC V6C 2G2",
,,,,"(49.28618, -123.115644)",Keefer & Abbott,"(49.279821, -123.10802)",19.0,Pallet Coffee Roasters,"848 Hastings St W, Vancouver BC V6C 1C8",
,,,,"(49.259164, -123.100851)",8th & Prince Edward,"(49.263518, -123.09568)",3.0,Lucky's Doughnuts,"2902 Main St, Vancouver BC V5T 3G3",
